[
  {
    "name": "Kapsalon Lisette",
    "street_address": "Zandstraat 60",
    "postal_code": "3905ED",
    "locality": "Veenendaal",
    "region": "Utrecht",
    "latitude": "52.0295292",
    "longitude": "5.5511422"
  },
  {
    "name": "Kapsones by B.Pink",
    "street_address": "De Wiekslag 21",
    "postal_code": "3871AR",
    "locality": "Hoevelaken",
    "region": "Gelderland",
    "latitude": "52.17489639999999",
    "longitude": "5.4566385"
  },
  {
    "name": "Salon Irma",
    "street_address": "Zederikstraat 11",
    "postal_code": "4132XD",
    "locality": "Vianen",
    "region": "Utrecht",
    "latitude": "51.9899077",
    "longitude": "5.090684500000001"
  },
  {
    "name": "Haarmode Sunny Look",
    "street_address": "de Eik 6",
    "postal_code": "7482WB",
    "locality": "Haaksbergen",
    "region": "Overijssel",
    "latitude": "52.16691609999999",
    "longitude": "6.7501642"
  },
  {
    "name": "Kapsalon La Perla",
    "street_address": "Van Starkenborghhof 80",
    "postal_code": "3527HB",
    "locality": "Utrecht",
    "region": "Utrecht",
    "latitude": "52.0742075",
    "longitude": "5.0941572"
  },
  {
    "name": "Haarsessies",
    "street_address": "Hunzestraat 2",
    "postal_code": "3522EB",
    "locality": "Utrecht",
    "region": "Utrecht",
    "latitude": "52.07053699999999",
    "longitude": "5.1124972"
  },
  {
    "name": "Class barber shop",
    "street_address": "Singel 29",
    "postal_code": "3861AD",
    "locality": "Nijkerk",
    "region": "Gelderland",
    "latitude": "52.2235313",
    "longitude": "5.4866493"
  },
  {
    "name": "Nineveh",
    "street_address": "Groenmarkt 15 a",
    "postal_code": "7201HW",
    "locality": "Zutphen",
    "region": "Gelderland",
    "latitude": "52.1416289",
    "longitude": "6.193762400000001"
  },
  {
    "name": "Hairstyle Carola",
    "street_address": "Burgemeester Folkertslaan 33",
    "postal_code": "8081AZ",
    "locality": "Elburg",
    "region": "Gelderland",
    "latitude": "52.44003",
    "longitude": "5.82867"
  },
  {
    "name": "De mannen kapper Hattem",
    "street_address": "Kerkstraat 42",
    "postal_code": "8051GM",
    "locality": "Hattem",
    "region": "Gelderland",
    "latitude": "52.4749796",
    "longitude": "6.0670274"
  },
  {
    "name": "Kapsalon @Sabine",
    "street_address": "2e Walsteeg 10",
    "postal_code": "8051EW",
    "locality": "Hattem",
    "region": "Gelderland",
    "latitude": "52.4750897",
    "longitude": "6.0683557"
  },
  {
    "name": "Desmo Hair",
    "street_address": "G.J. van Heekstraat 342",
    "postal_code": "7521EM",
    "locality": "Enschede",
    "region": "Overijssel",
    "latitude": "52.228249",
    "longitude": "6.8645866"
  },
  {
    "name": "Mijn droomkapper",
    "street_address": "Planetenbaan 17",
    "postal_code": "3721KA",
    "locality": "Bilthoven",
    "region": "Utrecht",
    "latitude": "52.1200086",
    "longitude": "5.1848429"
  },
  {
    "name": "Rijk aan Schoonheid",
    "street_address": "Gerrit Varwijkplein 13",
    "postal_code": "7038BX",
    "locality": "Zeddam",
    "region": "Gelderland",
    "latitude": "51.9028155",
    "longitude": "6.2601589"
  },
  {
    "name": "Coiffure de Paris",
    "street_address": "Vossenbrinkweg 10",
    "postal_code": "7491DD",
    "locality": "Delden",
    "region": "Overijssel",
    "latitude": "52.2587994",
    "longitude": "6.718984"
  },
  {
    "name": "HairfashionLizet",
    "street_address": "Marktstraat 21",
    "postal_code": "5171GM",
    "locality": "Kaatsheuvel",
    "region": "Noord-Brabant",
    "latitude": "51.6587904",
    "longitude": "5.0332301"
  },
  {
    "name": "Joan Althof",
    "street_address": "Klooster Leuterstraat 22 b",
    "postal_code": "3961AZ",
    "locality": "Wijk bij Duurstede",
    "region": "Utrecht",
    "latitude": "51.9724831",
    "longitude": "5.3468909"
  },
  {
    "name": "Blessed Cuts",
    "street_address": "Stationsstraat 16",
    "postal_code": "5281GD",
    "locality": "Boxtel",
    "region": "Noord-Brabant",
    "latitude": "51.58835329999999",
    "longitude": "5.323176999999999"
  },
  {
    "name": "Kapsalon Patricia",
    "street_address": "Oosterbrugstraat 19",
    "postal_code": "8281BT",
    "locality": "Genemuiden",
    "region": "Overijssel",
    "latitude": "52.625138",
    "longitude": "6.0425557"
  },
  {
    "name": "Franka Kapt er Mee",
    "street_address": "Overboslaan 15",
    "postal_code": "3722BJ",
    "locality": "Bilthoven",
    "region": "Utrecht",
    "latitude": "52.1232084",
    "longitude": "5.201186799999999"
  },
  {
    "name": "Tape extensions kampen",
    "street_address": "Teding van Berkhoutstraat 37",
    "postal_code": "8265ZH",
    "locality": "Kampen",
    "region": "Overijssel",
    "latitude": "52.5464162",
    "longitude": "5.910519600000001"
  },
  {
    "name": "BAKKES herenkappers | baardkwek..",
    "street_address": "Sassenstraat 50",
    "postal_code": "8011PC",
    "locality": "Zwolle",
    "region": "Overijssel",
    "latitude": "52.510682",
    "longitude": "6.094558399999999"
  },
  {
    "name": "Hair-Joy Hair, Lashlift&Brows",
    "street_address": "De Volder 34",
    "postal_code": "5283ZD",
    "locality": "Boxtel",
    "region": "Noord-Brabant",
    "latitude": "51.5847519",
    "longitude": "5.3514187"
  },
  {
    "name": "Piekfijn Kappers",
    "street_address": "Meddosestraat 14 a",
    "postal_code": "7101CV",
    "locality": "Winterswijk",
    "region": "Gelderland",
    "latitude": "51.9731332",
    "longitude": "6.7200462"
  },
  {
    "name": "Desiree Hairstyling",
    "street_address": "Julianalaan 86",
    "postal_code": "5161BC",
    "locality": "Sprang-Capelle",
    "region": "Noord-Brabant",
    "latitude": "51.67863269999999",
    "longitude": "5.0168476"
  },
  {
    "name": "Etherealbeauty",
    "street_address": "Adriaen van Ostadelaan 20",
    "postal_code": "3583AJ",
    "locality": "Utrecht",
    "region": "Utrecht",
    "latitude": "52.08441490000001",
    "longitude": "5.1387591"
  },
  {
    "name": "Luxurious-Hairextensions",
    "street_address": "De Vecht 6",
    "postal_code": "8253PH",
    "locality": "Dronten",
    "region": "Flevoland",
    "latitude": "52.542745",
    "longitude": "5.7037984"
  },
  {
    "name": "Fascino Kappers",
    "street_address": "Hoge Ham 93 A",
    "postal_code": "5104JC",
    "locality": "Dongen",
    "region": "Noord-Brabant",
    "latitude": "51.6280876",
    "longitude": "4.9406249"
  },
  {
    "name": "Your hair & nails",
    "street_address": "Ingen Nulandtstraat 7",
    "postal_code": "6675AL",
    "locality": "Valburg",
    "region": "Gelderland",
    "latitude": "51.91243",
    "longitude": "5.7937071"
  },
  {
    "name": "Barbier Rogier Utrecht",
    "street_address": "Vismarkt 21",
    "postal_code": "3511KS",
    "locality": "Utrecht",
    "region": "Utrecht",
    "latitude": "52.09065330000001",
    "longitude": "5.1204781"
  },
  {
    "name": "Kapsalon Arif",
    "street_address": "Assendorperstraat 22 A",
    "postal_code": "8011KB",
    "locality": "Zwolle",
    "region": "Overijssel",
    "latitude": "52.5080848",
    "longitude": "6.0986923"
  },
  {
    "name": "Haarzo",
    "street_address": "Hooftlanden 24",
    "postal_code": "4251BE",
    "locality": "Werkendam",
    "region": "Noord-Brabant",
    "latitude": "51.8093458",
    "longitude": "4.8894161"
  },
  {
    "name": "HaarKlip",
    "street_address": "Breede Kampen 56",
    "postal_code": "4171AV",
    "locality": "Herwijnen",
    "region": "Gelderland",
    "latitude": "51.8246344",
    "longitude": "5.1320543"
  },
  {
    "name": "Friendly Hairdesign",
    "street_address": "Daalseweg 238",
    "postal_code": "6521GR",
    "locality": "Nijmegen",
    "region": "Gelderland",
    "latitude": "51.8377597",
    "longitude": "5.8758817"
  },
  {
    "name": "D & M Haarmode",
    "street_address": "Mariaplein 5 A",
    "postal_code": "6685AT",
    "locality": "Haalderen",
    "region": "Gelderland",
    "latitude": "51.8868837",
    "longitude": "5.9312527"
  },
  {
    "name": "Hairfantasy Joice",
    "street_address": "Oude Boterdijk 26",
    "postal_code": "6582AT",
    "locality": "Heumen",
    "region": "Gelderland",
    "latitude": "51.765727",
    "longitude": "5.8442618"
  },
  {
    "name": "Hair-Crew Huissen",
    "street_address": "Brink 2",
    "postal_code": "6852EE",
    "locality": "Huissen",
    "region": "Gelderland",
    "latitude": "51.9453548",
    "longitude": "5.9264619"
  },
  {
    "name": "Barber Lounge Boxtel",
    "street_address": "Rechterstraat 11 a",
    "postal_code": "5281BS",
    "locality": "Boxtel",
    "region": "Noord-Brabant",
    "latitude": "51.58804910000001",
    "longitude": "5.325717099999999"
  },
  {
    "name": "Barber Jessie",
    "street_address": "Groenmarkt 39",
    "postal_code": "7201HW",
    "locality": "Zutphen",
    "region": "Gelderland",
    "latitude": "52.1416372",
    "longitude": "6.1949874"
  },
  {
    "name": "De Kâpper Spakenburg",
    "street_address": "Turfwal 10",
    "postal_code": "3751AP",
    "locality": "Bunschoten-Spakenburg",
    "region": "Utrecht",
    "latitude": "52.254122",
    "longitude": "5.378752599999999"
  },
  {
    "name": "HaarZin",
    "street_address": "2e Hogeweg 6",
    "postal_code": "3701AZ",
    "locality": "Zeist",
    "region": "Utrecht",
    "latitude": "52.0843398",
    "longitude": "5.2429575"
  },
  {
    "name": "Kapsalon Rustiek",
    "street_address": "De Belschuur 3",
    "postal_code": "3816BR",
    "locality": "Amersfoort",
    "region": "Utrecht",
    "latitude": "52.1550147",
    "longitude": "5.410351899999999"
  },
  {
    "name": "Thuiskapster Bea",
    "street_address": "Van Egmondstraat 17",
    "postal_code": "4143BN",
    "locality": "Leerdam",
    "region": "Utrecht",
    "latitude": "51.9001525",
    "longitude": "5.0926865"
  },
  {
    "name": "Thuiskapster Merel",
    "street_address": "Dwarsweg 3",
    "postal_code": "3959AC",
    "locality": "Overberg",
    "region": "Utrecht",
    "latitude": "52.0307959",
    "longitude": "5.4900667"
  },
  {
    "name": "Kapsalon leusden",
    "street_address": "De Brouwerij 3",
    "postal_code": "3831ND",
    "locality": "Leusden",
    "region": "Utrecht",
    "latitude": "52.1297206",
    "longitude": "5.426927"
  },
  {
    "name": "Hairstyling Good Vibes",
    "street_address": "Vlietstraat 3",
    "postal_code": "3371SX",
    "locality": "Hardinxveld-Giessendam",
    "region": "Zuid-Holland",
    "latitude": "51.8233254",
    "longitude": "4.8272516"
  },
  {
    "name": "Trendy bij Tamara",
    "street_address": "Lentemorgen 5",
    "postal_code": "6903CT",
    "locality": "Zevenaar",
    "region": "Gelderland",
    "latitude": "51.9350762",
    "longitude": "6.0731537"
  },
  {
    "name": "Topkop",
    "street_address": "Boerhaaveweg 54",
    "postal_code": "3401MN",
    "locality": "IJsselstein",
    "region": "Utrecht",
    "latitude": "52.0159511",
    "longitude": "5.0565918"
  },
  {
    "name": "Scheer & Schaar",
    "street_address": "St. Jorisplein 6",
    "postal_code": "4205JA",
    "locality": "Gorinchem",
    "region": "Zuid-Holland",
    "latitude": "51.83930119999999",
    "longitude": "4.9633784"
  },
  {
    "name": "Beauty & Spa Maas en Waal",
    "street_address": "Rooijsestraat 11 a",
    "postal_code": "6621AH",
    "locality": "Dreumel",
    "region": "Gelderland",
    "latitude": "51.8431264",
    "longitude": "5.419243199999999"
  },
  {
    "name": "Kapsalon Haarzuiver Eco Friendl..",
    "street_address": "Rauwenhoflaan 26",
    "postal_code": "4003DC",
    "locality": "Tiel",
    "region": "Gelderland",
    "latitude": "51.894114",
    "longitude": "5.405247"
  },
  {
    "name": "Kapsalon Marli",
    "street_address": "Runstraat 8 C",
    "postal_code": "5374AC",
    "locality": "Schaijk",
    "region": "Noord-Brabant",
    "latitude": "51.7474123",
    "longitude": "5.6304246"
  },
  {
    "name": "Hairstyle Sazz",
    "street_address": "Dr. Slotemaker de Bruïnestraat 7",
    "postal_code": "3904CA",
    "locality": "Veenendaal",
    "region": "Utrecht",
    "latitude": "52.0181994",
    "longitude": "5.5408864"
  },
  {
    "name": "Amrani Totaal",
    "street_address": "Laanstraat 82 13",
    "postal_code": "3762KE",
    "locality": "Soest",
    "region": "Utrecht",
    "latitude": "52.178279",
    "longitude": "5.282728"
  },
  {
    "name": "Haarstudio Ramune",
    "street_address": "Ambachtstraat 3",
    "postal_code": "5481SM",
    "locality": "Schijndel",
    "region": "Noord-Brabant",
    "latitude": "51.6061177",
    "longitude": "5.4452171"
  },
  {
    "name": "Jansen Haarverzorging",
    "street_address": "Worth Rhedenseweg 45 k061",
    "postal_code": "6991DV",
    "locality": "Rheden",
    "region": "Gelderland",
    "latitude": "52.0047565",
    "longitude": "6.0278434"
  },
  {
    "name": "Angel IJsseldijk",
    "street_address": "Zuiderlaan 7",
    "postal_code": "6905AC",
    "locality": "Zevenaar",
    "region": "Gelderland",
    "latitude": "51.92183929999999",
    "longitude": "6.0749298"
  },
  {
    "name": "Hendy's Herensalon",
    "street_address": "Hassinklaan 39",
    "postal_code": "7214AB",
    "locality": "Epse",
    "region": "Gelderland",
    "latitude": "52.2247671",
    "longitude": "6.2010136"
  },
  {
    "name": "X-cellent Hairstyling",
    "street_address": "Antonius Matthaeuslaan 83",
    "postal_code": "3515AP",
    "locality": "Utrecht",
    "region": "Utrecht",
    "latitude": "52.1047463",
    "longitude": "5.121087000000001"
  },
  {
    "name": "HairLXRY",
    "street_address": "Korenmolen 49",
    "postal_code": "5057BA",
    "locality": "Berkel-Enschot",
    "region": "Noord-Brabant",
    "latitude": "51.5913177",
    "longitude": "5.1376293"
  },
  {
    "name": "M&J Kappers",
    "street_address": "Stadskade 480",
    "postal_code": "7311XZ",
    "locality": "Apeldoorn",
    "region": "Gelderland",
    "latitude": "52.2121256",
    "longitude": "5.974628699999999"
  },
  {
    "name": "Twin Hair",
    "street_address": "Verbrughweg 32",
    "postal_code": "4033GP",
    "locality": "Lienden",
    "region": "Gelderland",
    "latitude": "51.943805",
    "longitude": "5.5180494"
  },
  {
    "name": "ES Hair & Beauty Salon",
    "street_address": "Van Randwijcklaan 26-28",
    "postal_code": "3814AL",
    "locality": "Amersfoort",
    "region": "Utrecht",
    "latitude": "52.16222819999999",
    "longitude": "5.401205600000001"
  },
  {
    "name": "Kapsalon Marianne Zeist",
    "street_address": "Nijenheim 6109",
    "postal_code": "3704BG",
    "locality": "Zeist",
    "region": "Utrecht",
    "latitude": "52.0869954",
    "longitude": "5.2189771"
  },
  {
    "name": "Kapsalon Mata-Hari",
    "street_address": "Graadt van Roggenweg 13 A",
    "postal_code": "3531AA",
    "locality": "Utrecht",
    "region": "Utrecht",
    "latitude": "52.08889929999999",
    "longitude": "5.1014251"
  },
  {
    "name": "1954",
    "street_address": "Lisdoddelaan 18",
    "postal_code": "4143VG",
    "locality": "Leerdam",
    "region": "Zuid-Holland",
    "latitude": "51.9007241",
    "longitude": "5.0880833"
  },
  {
    "name": "Curly’s Hair & Styling",
    "street_address": "Laan 13",
    "postal_code": "8071JG",
    "locality": "Nunspeet",
    "region": "Gelderland",
    "latitude": "52.3773633",
    "longitude": "5.7864966"
  },
  {
    "name": "Kapsalon A New Look",
    "street_address": "Van Hetenstraat 63 A",
    "postal_code": "7415TT",
    "locality": "Deventer",
    "region": "Overijssel",
    "latitude": "52.2679509",
    "longitude": "6.16376"
  },
  {
    "name": "Kapsalon Mus’ab",
    "street_address": "Oudestraat 97",
    "postal_code": "8261CJ",
    "locality": "Kampen",
    "region": "Overijssel",
    "latitude": "52.5578115",
    "longitude": "5.9176179"
  },
  {
    "name": "Haarstudio Van de Ven - Voor He..",
    "street_address": "Haarendijk 48",
    "postal_code": "5076TM",
    "locality": "Haaren",
    "region": "Noord-Brabant",
    "latitude": "51.5998756",
    "longitude": "5.2345545"
  },
  {
    "name": "The Young Hair and Beauty",
    "street_address": "Irenestraat 3",
    "postal_code": "4132EP",
    "locality": "Vianen",
    "region": "Utrecht",
    "latitude": "51.9848238",
    "longitude": "5.0915123"
  },
  {
    "name": "mevr.",
    "street_address": "Dr. Martin Luther Kingstraat 46",
    "postal_code": "7557LV",
    "locality": "Hengelo",
    "region": "Overijssel",
    "latitude": "52.2761991",
    "longitude": "6.8183877"
  },
  {
    "name": "New Hair Styling",
    "street_address": "Aardbeivlinder 119",
    "postal_code": "4007HA",
    "locality": "Tiel",
    "region": "Gelderland",
    "latitude": "51.8658173",
    "longitude": "5.402830300000001"
  },
  {
    "name": "DelaarHAAR Hair & Beauty",
    "street_address": "Oostburgwal 34",
    "postal_code": "6845CZ",
    "locality": "Arnhem",
    "region": "Gelderland",
    "latitude": "51.9489433",
    "longitude": "5.8664329"
  },
  {
    "name": "Special Hair",
    "street_address": "Leilat 19",
    "postal_code": "3829ET",
    "locality": "Hooglanderveen",
    "region": "Utrecht",
    "latitude": "52.18278460000001",
    "longitude": "5.4320118"
  },
  {
    "name": "Kappen Floor",
    "street_address": "Veldweg 17",
    "postal_code": "3755AG",
    "locality": "Eemnes",
    "region": "Utrecht",
    "latitude": "52.2547304",
    "longitude": "5.253399600000001"
  },
  {
    "name": "Kapsalon Shabo Vught",
    "street_address": "Helvoirtseweg 151",
    "postal_code": "5263EC",
    "locality": "Vught",
    "region": "Noord-Brabant",
    "latitude": "51.6564468",
    "longitude": "5.2888742"
  },
  {
    "name": "Hairbysimon",
    "street_address": "Gasthuisstraat 11",
    "postal_code": "7201MN",
    "locality": "Zutphen",
    "region": "Gelderland",
    "latitude": "52.1438664",
    "longitude": "6.1956725"
  },
  {
    "name": "LUC BAUMGARTEN",
    "street_address": "Hazenkamplaan 23",
    "postal_code": "5345NR",
    "locality": "Oss",
    "region": "Noord-Brabant",
    "latitude": "51.7650094",
    "longitude": "5.4934867"
  },
  {
    "name": "Barbier Rogier Laren",
    "street_address": "Nieuweweg 5",
    "postal_code": "1251LG",
    "locality": "Laren",
    "region": "Noord-Holland",
    "latitude": "52.2555101",
    "longitude": "5.2257539"
  },
  {
    "name": "Trendlounge Laren",
    "street_address": "Schoutenbosje 3 b",
    "postal_code": "1251LE",
    "locality": "Laren",
    "region": "Noord-Holland",
    "latitude": "52.25568209999999",
    "longitude": "5.2233815"
  },
  {
    "name": "Eli’s kappers",
    "street_address": "Julianaplein 3",
    "postal_code": "6671CA",
    "locality": "Zetten",
    "region": "Gelderland",
    "latitude": "51.9300357",
    "longitude": "5.7115125"
  },
  {
    "name": "Kapsalon FrieStijl",
    "street_address": "Dirk IV-plein 9",
    "postal_code": "4223NJ",
    "locality": "Hoornaar",
    "region": "Zuid-Holland",
    "latitude": "51.878747",
    "longitude": "4.9483358"
  },
  {
    "name": "Mohair by Angélique",
    "street_address": "Weislag 7",
    "postal_code": "5221AZ",
    "locality": "'s-Hertogenbosch",
    "region": "Noord-Brabant",
    "latitude": "51.723798",
    "longitude": "5.2673215"
  },
  {
    "name": "Schoonheidssalon & kapsalon de..",
    "street_address": "Ratelaar 39 B",
    "postal_code": "3434EW",
    "locality": "Nieuwegein",
    "region": "Utrecht",
    "latitude": "52.0057767",
    "longitude": "5.086007599999999"
  },
  {
    "name": "Shef's Haircenter",
    "street_address": "Brinkgreverweg 28 A",
    "postal_code": "7413AC",
    "locality": "Deventer",
    "region": "Overijssel",
    "latitude": "52.2566801",
    "longitude": "6.1651755"
  },
  {
    "name": "Coco Jari",
    "street_address": "Vleeshouwerstraat 9",
    "postal_code": "7411JN",
    "locality": "Deventer",
    "region": "Overijssel",
    "latitude": "52.2522453",
    "longitude": "6.1574105"
  },
  {
    "name": "Haar en nagelstyling Karianne",
    "street_address": "Lekdijk-Oost 58",
    "postal_code": "2861GB",
    "locality": "Bergambacht",
    "region": "Zuid-Holland",
    "latitude": "51.9244043",
    "longitude": "4.7986489"
  },
  {
    "name": "Shiba Hair and Beauty",
    "street_address": "Hofveld 107",
    "postal_code": "7333BK",
    "locality": "Apeldoorn",
    "region": "Gelderland",
    "latitude": "52.19080959999999",
    "longitude": "5.966187"
  },
  {
    "name": "BRUSH. salons",
    "street_address": "Grotestraat 204",
    "postal_code": "7622GT",
    "locality": "Borne",
    "region": "Overijssel",
    "latitude": "52.3013546",
    "longitude": "6.754189999999999"
  },
  {
    "name": "VIP Hair & More",
    "street_address": "Schuilenburglaan 24",
    "postal_code": "4033DK",
    "locality": "Lienden",
    "region": "Gelderland",
    "latitude": "51.9410947",
    "longitude": "5.5209692"
  },
  {
    "name": "Kapper Said",
    "street_address": "Verdiplein 99",
    "postal_code": "5049NR",
    "locality": "Tilburg",
    "region": "Noord-Brabant",
    "latitude": "51.5908768",
    "longitude": "5.078807299999999"
  },
  {
    "name": "Herenkapsalon Marc Schoenmakers",
    "street_address": "Bosscheweg 45",
    "postal_code": "5281AH",
    "locality": "Boxtel",
    "region": "Noord-Brabant",
    "latitude": "51.5948796",
    "longitude": "5.324244699999999"
  },
  {
    "name": "Hair By Monique",
    "street_address": "Dorpsstraat 3",
    "postal_code": "3886AR",
    "locality": "Garderen",
    "region": "Gelderland",
    "latitude": "52.2325914",
    "longitude": "5.7147285"
  },
  {
    "name": "My Roots Barbershop",
    "street_address": "Lijsterweg 49",
    "postal_code": "7557PL",
    "locality": "Hengelo",
    "region": "Overijssel",
    "latitude": "52.2682718",
    "longitude": "6.8033823"
  },
  {
    "name": "de Bruijn Haarmode",
    "street_address": "Springweg 20",
    "postal_code": "3511VP",
    "locality": "Utrecht",
    "region": "Utrecht",
    "latitude": "52.0886883",
    "longitude": "5.1187458"
  },
  {
    "name": "Barbier Kerels",
    "street_address": "Tuinstraat 133 1ste Etage",
    "postal_code": "3901RA",
    "locality": "Veenendaal",
    "region": "Utrecht",
    "latitude": "52.02776009999999",
    "longitude": "5.5577421"
  },
  {
    "name": "kapsalon ISSA",
    "street_address": "Spoorlaan 128",
    "postal_code": "5061HD",
    "locality": "Oisterwijk",
    "region": "Noord-Brabant",
    "latitude": "51.5828173",
    "longitude": "5.1989027"
  },
  {
    "name": "Debby's",
    "street_address": "Sont 18",
    "postal_code": "8226AB",
    "locality": "Lelystad",
    "region": "Flevoland",
    "latitude": "52.4976186",
    "longitude": "5.4910947"
  },
  {
    "name": "Kapsalon Lille",
    "street_address": "Zwartkate Es 12",
    "postal_code": "7541CC",
    "locality": "Enschede",
    "region": "Overijssel",
    "latitude": "52.204291",
    "longitude": "6.908227300000001"
  },
  {
    "name": "kappers Plein",
    "street_address": "Bloemerstraat 106",
    "postal_code": "6511EN",
    "locality": "Nijmegen",
    "region": "Gelderland",
    "latitude": "51.8456815",
    "longitude": "5.8617859"
  },
  {
    "name": "Kapsalon Lucky Scissors",
    "street_address": "Koperwiek 35",
    "postal_code": "7423EB",
    "locality": "Deventer",
    "region": "Overijssel",
    "latitude": "52.2557827",
    "longitude": "6.2100652"
  },
  {
    "name": "Double Boost Hairstyling",
    "street_address": "Langestraat 9",
    "postal_code": "8281AE",
    "locality": "Genemuiden",
    "region": "Overijssel",
    "latitude": "52.6234273",
    "longitude": "6.0399633"
  },
  {
    "name": "Haar & Beautystudio Brenda",
    "street_address": "Bunschoterweg 5",
    "postal_code": "6711CG",
    "locality": "Ede",
    "region": "Gelderland",
    "latitude": "52.0486964",
    "longitude": "5.6722873"
  },
  {
    "name": "Mariska Maakt Mooi",
    "street_address": "Beekstraat 8 d",
    "postal_code": "7311LD",
    "locality": "Apeldoorn",
    "region": "Gelderland",
    "latitude": "52.21351019999999",
    "longitude": "5.964765499999999"
  },
  {
    "name": "Hairstyling Manon",
    "street_address": "Schupstoel 5 a",
    "postal_code": "7201CZ",
    "locality": "Zutphen",
    "region": "Gelderland",
    "latitude": "52.1408739",
    "longitude": "6.1982195"
  },
  {
    "name": "Kapsalon Rini Gerritse",
    "street_address": "Spreeuwenstraat 267",
    "postal_code": "3815SX",
    "locality": "Amersfoort",
    "region": "Utrecht",
    "latitude": "52.15767229999999",
    "longitude": "5.3943188"
  },
  {
    "name": "TEASE by salontopper",
    "street_address": "Doetinchemseweg 4",
    "postal_code": "7051AC",
    "locality": "Varsseveld",
    "region": "Gelderland",
    "latitude": "51.94384549999999",
    "longitude": "6.461849399999999"
  },
  {
    "name": "Dreamweaves",
    "street_address": "Rijnlaan 8",
    "postal_code": "4105GS",
    "locality": "Culemborg",
    "region": "Gelderland",
    "latitude": "51.95360729999999",
    "longitude": "5.2160872"
  },
  {
    "name": "Centre Cosmetique Elly van der..",
    "street_address": "Het Overslag 72",
    "postal_code": "3906AC",
    "locality": "Veenendaal",
    "region": "Utrecht",
    "latitude": "52.028464",
    "longitude": "5.5314196"
  },
  {
    "name": "Kapsalon rooie sien",
    "street_address": "Esscheweg 4",
    "postal_code": "5271NB",
    "locality": "Sint-Michielsgestel",
    "region": "Noord-Brabant",
    "latitude": "51.6386656",
    "longitude": "5.3465492"
  },
  {
    "name": "Haaridee Apeldoorn in Ugchelen",
    "street_address": "Bouwhofweg 61",
    "postal_code": "7339HC",
    "locality": "Ugchelen",
    "region": "Gelderland",
    "latitude": "52.188089",
    "longitude": "5.9484993"
  },
  {
    "name": "Knippen voor een tientje in Spi..",
    "street_address": "Hofstraat 8",
    "postal_code": "6917BE",
    "locality": "Spijk",
    "region": "Gelderland",
    "latitude": "51.84986",
    "longitude": "6.15545"
  },
  {
    "name": "Home alone hairstyling",
    "street_address": "Zwartekolk 15",
    "postal_code": "8191TJ",
    "locality": "Wapenveld",
    "region": "Gelderland",
    "latitude": "52.435208",
    "longitude": "6.0820571"
  },
  {
    "name": "Williams & Grey",
    "street_address": "Van 't Santstraat 1",
    "postal_code": "6523BA",
    "locality": "Nijmegen",
    "region": "Gelderland",
    "latitude": "51.8354588",
    "longitude": "5.8746439"
  },
  {
    "name": "kapsalon Knip n Knap",
    "street_address": "Luttekepoortstraat 36 A",
    "postal_code": "3841AX",
    "locality": "Harderwijk",
    "region": "Gelderland",
    "latitude": "52.3491361",
    "longitude": "5.620144499999999"
  },
  {
    "name": "A La Fran",
    "street_address": "de Lingert 6401",
    "postal_code": "6605DZ",
    "locality": "Wijchen",
    "region": "Gelderland",
    "latitude": "51.7910048",
    "longitude": "5.737591999999999"
  },
  {
    "name": "Way 4 Hair",
    "street_address": "Het Bijvank 89 A",
    "postal_code": "7544DA",
    "locality": "Enschede",
    "region": "Overijssel",
    "latitude": "52.19532969999999",
    "longitude": "6.8754021"
  },
  {
    "name": "Creations by Nikie",
    "street_address": "Tapperstraat 69",
    "postal_code": "4204TS",
    "locality": "Gorinchem",
    "region": "Zuid-Holland",
    "latitude": "51.8385257",
    "longitude": "4.9481734"
  },
  {
    "name": "Image by Christel",
    "street_address": "Nieuwlandsestraat 51",
    "postal_code": "5473RT",
    "locality": "Heeswijk Dinther",
    "region": "Noord-Brabant",
    "latitude": "51.6556434",
    "longitude": "5.4869143"
  },
  {
    "name": "Cleo Hairfashion",
    "street_address": "Sassenstraat 51",
    "postal_code": "8011PB",
    "locality": "Zwolle",
    "region": "Overijssel",
    "latitude": "52.5100985",
    "longitude": "6.0956166"
  },
  {
    "name": "Piep & Lief",
    "street_address": "Weerstraat 18",
    "postal_code": "4001LD",
    "locality": "Tiel",
    "region": "Gelderland",
    "latitude": "51.88681210000001",
    "longitude": "5.4378378"
  },
  {
    "name": "FreshCut Studio",
    "street_address": "Westwal 8",
    "postal_code": "4141AP",
    "locality": "Leerdam",
    "region": "Utrecht",
    "latitude": "51.8905447",
    "longitude": "5.0913072"
  },
  {
    "name": "Looks4all",
    "street_address": "Aalsburg 1707",
    "postal_code": "6602VA",
    "locality": "Wijchen",
    "region": "Gelderland",
    "latitude": "51.8104644",
    "longitude": "5.731667499999999"
  },
  {
    "name": "Annemie Messing",
    "street_address": "Thorbeckestraat 16",
    "postal_code": "7064HD",
    "locality": "Silvolde",
    "region": "Gelderland",
    "latitude": "51.9123197",
    "longitude": "6.3827586"
  },
  {
    "name": "Thuiskapper UB20",
    "street_address": "Akeleistraat 54",
    "postal_code": "6707BZ",
    "locality": "Wageningen",
    "region": "Gelderland",
    "latitude": "51.9762646",
    "longitude": "5.6706769"
  },
  {
    "name": "Sher kapper twello",
    "street_address": "van Ghentstraat 17",
    "postal_code": "7391CR",
    "locality": "Twello",
    "region": "Gelderland",
    "latitude": "52.2362921",
    "longitude": "6.1040563"
  },
  {
    "name": "M. van der Steen",
    "street_address": "Stationsplein 131",
    "postal_code": "5211BP",
    "locality": "'s-Hertogenbosch",
    "region": "Noord-Brabant",
    "latitude": "51.6905789",
    "longitude": "5.2946433"
  },
  {
    "name": "Thuiskapper Mindy",
    "street_address": "Molenstraat 46",
    "postal_code": "3433CN",
    "locality": "Nieuwegein",
    "region": "Utrecht",
    "latitude": "52.00405869999999",
    "longitude": "5.0934754"
  },
  {
    "name": "Hairtrends For All",
    "street_address": "Pastoor Spieringsstraat 219",
    "postal_code": "5401GT",
    "locality": "Uden",
    "region": "Noord-Brabant",
    "latitude": "51.6599367",
    "longitude": "5.6159094"
  },
  {
    "name": "Mo Hairstyling",
    "street_address": "Wickenburghselaan 2",
    "postal_code": "3998JW",
    "locality": "Schalkwijk",
    "region": "Utrecht",
    "latitude": "51.9941951",
    "longitude": "5.1863047"
  },
  {
    "name": "Hairstyling Magic Hands",
    "street_address": "Voorheuvel 8 A",
    "postal_code": "3701JE",
    "locality": "Zeist",
    "region": "Utrecht",
    "latitude": "52.0865829",
    "longitude": "5.239828000000001"
  },
  {
    "name": "Nexxt House of Hair",
    "street_address": "Havik 41",
    "postal_code": "3811EX",
    "locality": "Amersfoort",
    "region": "Utrecht",
    "latitude": "52.1573045",
    "longitude": "5.389177"
  },
  {
    "name": "Kappersplein",
    "street_address": "Bloemerstraat 106",
    "postal_code": "6511EN",
    "locality": "Nijmegen",
    "region": "Gelderland",
    "latitude": "51.8456815",
    "longitude": "5.8617859"
  },
  {
    "name": "Beautiful Kappers",
    "street_address": "Rapenburgsestraat 4 c",
    "postal_code": "7131CX",
    "locality": "Lichtenvoorde",
    "region": "Gelderland",
    "latitude": "51.9873527",
    "longitude": "6.567066899999999"
  },
  {
    "name": "SALON KEIJ MOOI",
    "street_address": "Uilenesterstraat 6 A",
    "postal_code": "7256KD",
    "locality": "Keijenborg",
    "region": "Gelderland",
    "latitude": "52.0297978",
    "longitude": "6.2803304"
  },
  {
    "name": "MK Coiffeur",
    "street_address": "Stadsring 206 0334627575",
    "postal_code": "3811HS",
    "locality": "Amersfoort",
    "region": "Utrecht",
    "latitude": "52.15332069999999",
    "longitude": "5.3855962"
  },
  {
    "name": "De Knipzus",
    "street_address": "Rietdekkersweg 18",
    "postal_code": "8091LD",
    "locality": "Wezep",
    "region": "Gelderland",
    "latitude": "52.4611662",
    "longitude": "6.0063866"
  },
  {
    "name": "Estilona, uw natuurkapster aan..",
    "street_address": "Pathmossingel 167",
    "postal_code": "7513CG",
    "locality": "Enschede",
    "region": "Overijssel",
    "latitude": "52.2164049",
    "longitude": "6.875755"
  },
  {
    "name": "Hairstyling Maarn",
    "street_address": "Tuindorpweg 35 A",
    "postal_code": "3951BD",
    "locality": "Maarn",
    "region": "Utrecht",
    "latitude": "52.0641769",
    "longitude": "5.3723578"
  },
  {
    "name": "Haarsalon Michelle",
    "street_address": "Voortsweg 204 C2",
    "postal_code": "7523CK",
    "locality": "Enschede",
    "region": "Overijssel",
    "latitude": "52.2349729",
    "longitude": "6.9004784"
  },
  {
    "name": "Esther Hairfashion",
    "street_address": "Plantenstraat 2 a",
    "postal_code": "7001EZ",
    "locality": "Doetinchem",
    "region": "Gelderland",
    "latitude": "51.9623317",
    "longitude": "6.2932371"
  },
  {
    "name": "Haar Kapperie",
    "street_address": "Karekietstraat 12",
    "postal_code": "4209BP",
    "locality": "Schelluinen",
    "region": "Zuid-Holland",
    "latitude": "51.845947",
    "longitude": "4.921168"
  },
  {
    "name": "Shapehairbylisa",
    "street_address": "Doelenstraat 6",
    "postal_code": "6811CN",
    "locality": "Arnhem",
    "region": "Gelderland",
    "latitude": "51.9829167",
    "longitude": "5.9080631"
  },
  {
    "name": "By Wendy Hairstyling",
    "street_address": "Julianaplein 3",
    "postal_code": "6671CA",
    "locality": "Zetten",
    "region": "Gelderland",
    "latitude": "51.9300332",
    "longitude": "5.711564"
  },
  {
    "name": "Hairdrezz",
    "street_address": "Van Tuyllstraat 15",
    "postal_code": "3829AA",
    "locality": "Hooglanderveen",
    "region": "Utrecht",
    "latitude": "52.1890773",
    "longitude": "5.4312493"
  },
  {
    "name": "Home Alone Hairstyling & more",
    "street_address": "Zwartekolk 15",
    "postal_code": "8191TJ",
    "locality": "Wapenveld",
    "region": "Gelderland",
    "latitude": "52.435208",
    "longitude": "6.0820571"
  },
  {
    "name": "De Snelle Knipper",
    "street_address": "Voorstraat 47",
    "postal_code": "3401DB",
    "locality": "IJsselstein",
    "region": "Utrecht",
    "latitude": "52.0190086",
    "longitude": "5.0444627"
  },
  {
    "name": "Kapsalon Cocopelo",
    "street_address": "Korte Koestraat 1",
    "postal_code": "3511RP",
    "locality": "Utrecht",
    "region": "Utrecht",
    "latitude": "52.0931353",
    "longitude": "5.1123275"
  },
  {
    "name": "Desiree",
    "street_address": "Beerze 69",
    "postal_code": "3961HB",
    "locality": "Wijk bij Duurstede",
    "region": "Utrecht",
    "latitude": "51.97406369999999",
    "longitude": "5.3236037"
  },
  {
    "name": "Silvan-babershop",
    "street_address": "Walderstraat 15",
    "postal_code": "7241BH",
    "locality": "Lochem",
    "region": "Gelderland",
    "latitude": "52.1620303",
    "longitude": "6.4136413"
  },
  {
    "name": "Haarstudio Ying",
    "street_address": "Industriestraat 65",
    "postal_code": "7553CL",
    "locality": "Hengelo",
    "region": "Overijssel",
    "latitude": "52.256161",
    "longitude": "6.786449"
  },
  {
    "name": "TEAM Kappers",
    "street_address": "Kerkbuurt 55",
    "postal_code": "3361BC",
    "locality": "Sliedrecht",
    "region": "Zuid-Holland",
    "latitude": "51.8202631",
    "longitude": "4.774003"
  },
  {
    "name": "Hairfashion by Diana",
    "street_address": "Heuvelakkerstraat 1",
    "postal_code": "5356PD",
    "locality": "Neerloon",
    "region": "Noord-Brabant",
    "latitude": "51.789379",
    "longitude": "5.6743565"
  },
  {
    "name": "Lookz by Janneke",
    "street_address": "Mr. W.M. Kolffstraat 13",
    "postal_code": "4158EP",
    "locality": "Deil",
    "region": "Gelderland",
    "latitude": "51.884624",
    "longitude": "5.2301769"
  },
  {
    "name": "Joucke's Barbershop",
    "street_address": "Nieuwstad 78",
    "postal_code": "7001AE",
    "locality": "Doetinchem",
    "region": "Gelderland",
    "latitude": "51.9662012",
    "longitude": "6.2902622"
  },
  {
    "name": "Prestige Hair, Nails, Make-Up",
    "street_address": "Nieuw Steeg 8 a",
    "postal_code": "7009ZE",
    "locality": "Doetinchem",
    "region": "Gelderland",
    "latitude": "51.989366",
    "longitude": "6.3243676"
  },
  {
    "name": "Kiss Quality Nails And Hair Sal..",
    "street_address": "Wethouder De Klerkhof 8",
    "postal_code": "1261TH",
    "locality": "Blaricum",
    "region": "Noord-Holland",
    "latitude": "52.271376",
    "longitude": "5.248088399999999"
  },
  {
    "name": "Atelier 10b / LiVage Doetinchem..",
    "street_address": "Aaltenseweg 10 B",
    "postal_code": "7065CA",
    "locality": "Sinderen",
    "region": "Gelderland",
    "latitude": "51.9025755",
    "longitude": "6.462334800000001"
  },
  {
    "name": "Hannie van Rijnsbergen",
    "street_address": "Hoogveldweg 9",
    "postal_code": "5315AG",
    "locality": "Kerkwijk",
    "region": "Gelderland",
    "latitude": "51.7778438",
    "longitude": "5.2247521"
  },
  {
    "name": "Bijhaar Kapsalon",
    "street_address": "Cotherweg 41",
    "postal_code": "3947MR",
    "locality": "Langbroek",
    "region": "Utrecht",
    "latitude": "52.0088193",
    "longitude": "5.3229003"
  },
  {
    "name": "Anova Kappers",
    "street_address": "Bloemstraat 34",
    "postal_code": "8081CW",
    "locality": "Elburg",
    "region": "Gelderland",
    "latitude": "52.4475093",
    "longitude": "5.8341783"
  },
  {
    "name": "Mooi bij Mieke",
    "street_address": "Hoogveldseweg 25 c",
    "postal_code": "5451AA",
    "locality": "Mill",
    "region": "Noord-Brabant",
    "latitude": "51.689995",
    "longitude": "5.7790965"
  },
  {
    "name": "Kapsalon Aline",
    "street_address": "Brink 1",
    "postal_code": "3947NS",
    "locality": "Langbroek",
    "region": "Utrecht",
    "latitude": "52.01094399999999",
    "longitude": "5.327018199999999"
  },
  {
    "name": "HairwizardofOss",
    "street_address": "Visstraat 58",
    "postal_code": "5345DJ",
    "locality": "Oss",
    "region": "Noord-Brabant",
    "latitude": "51.7734578",
    "longitude": "5.4943759"
  },
  {
    "name": "Hair & Beauty Maria",
    "street_address": "Kalverbos 1 B",
    "postal_code": "4001AJ",
    "locality": "Tiel",
    "region": "Gelderland",
    "latitude": "51.8878479",
    "longitude": "5.4316359"
  },
  {
    "name": "Styling by M Amersfoort Centrum",
    "street_address": "Achter de Arnhemse Poortwal 123 F",
    "postal_code": "3811LZ",
    "locality": "Amersfoort",
    "region": "Utrecht",
    "latitude": "52.1536802",
    "longitude": "5.3853332"
  },
  {
    "name": "Kapsalon Zwolle",
    "street_address": "Diezerplein 13",
    "postal_code": "8021CS",
    "locality": "Zwolle",
    "region": "Overijssel",
    "latitude": "52.5159625",
    "longitude": "6.1009259"
  },
  {
    "name": "Dalal Hairstyling",
    "street_address": "Queenstraat 58",
    "postal_code": "6663HD",
    "locality": "Nijmegen",
    "region": "Gelderland",
    "latitude": "51.8714345",
    "longitude": "5.8690628"
  },
  {
    "name": "Barbershop Huizen",
    "street_address": "Havenstraat 76",
    "postal_code": "1271AG",
    "locality": "Huizen",
    "region": "Noord-Holland",
    "latitude": "52.30406319999999",
    "longitude": "5.2404352"
  },
  {
    "name": "Kapsalon Nathalie",
    "street_address": "Amansweg 13",
    "postal_code": "5455RD",
    "locality": "Wilbertoord",
    "region": "Noord-Brabant",
    "latitude": "51.6509545",
    "longitude": "5.7800012"
  },
  {
    "name": "BeautyKamer",
    "street_address": "Gelreweg 36",
    "postal_code": "3843AN",
    "locality": "Harderwijk",
    "region": "Gelderland",
    "latitude": "52.336552",
    "longitude": "5.6294524"
  },
  {
    "name": "Mich Do My Hair",
    "street_address": "Hydrograaf 9",
    "postal_code": "6921RS",
    "locality": "Duiven",
    "region": "Gelderland",
    "latitude": "51.9622302",
    "longitude": "5.9962031"
  },
  {
    "name": "Salon 1850",
    "street_address": "Spittaalstraat 36",
    "postal_code": "7201EE",
    "locality": "Zutphen",
    "region": "Gelderland",
    "latitude": "52.1380511",
    "longitude": "6.1996361"
  },
  {
    "name": "Goodhairday by Rachel",
    "street_address": "Broederenstraat 45",
    "postal_code": "7411LB",
    "locality": "Deventer",
    "region": "Overijssel",
    "latitude": "52.2540451",
    "longitude": "6.156462899999999"
  },
  {
    "name": "Bertina de Haas",
    "street_address": "Nieuwegracht 4",
    "postal_code": "3763LB",
    "locality": "Soest",
    "region": "Utrecht",
    "latitude": "52.1805831",
    "longitude": "5.266585999999999"
  },
  {
    "name": "knip-knap kapsalon",
    "street_address": "Dorpsstraat vo Steenstraat 20",
    "postal_code": "3732HJ",
    "locality": "De Bilt",
    "region": "Utrecht",
    "latitude": "52.1046354",
    "longitude": "5.184465299999999"
  },
  {
    "name": "Barbershop Silvan in Lochem",
    "street_address": "Walderstraat 15",
    "postal_code": "7241BH",
    "locality": "Lochem",
    "region": "Gelderland",
    "latitude": "52.1620303",
    "longitude": "6.4136413"
  },
  {
    "name": "Ester's Hairfashion",
    "street_address": "Schopperskamp 12",
    "postal_code": "7122TR",
    "locality": "Aalten",
    "region": "Gelderland",
    "latitude": "51.9253835",
    "longitude": "6.563759999999999"
  },
  {
    "name": "Radha Hairstyling",
    "street_address": "Karstraat 66",
    "postal_code": "6851DM",
    "locality": "Huissen",
    "region": "Gelderland",
    "latitude": "51.9169731",
    "longitude": "5.926239"
  },
  {
    "name": "1990",
    "street_address": "Azaleastraat 7",
    "postal_code": "6744AD",
    "locality": "Ederveen",
    "region": "Gelderland",
    "latitude": "52.06248979999999",
    "longitude": "5.5797909"
  },
  {
    "name": "Knip-Knap Kapsalon",
    "street_address": "Buys Ballotlaan 17",
    "postal_code": "3769GK",
    "locality": "Soesterberg",
    "region": "Utrecht",
    "latitude": "52.1156977",
    "longitude": "5.2847137"
  },
  {
    "name": "Chelina's",
    "street_address": "Lijndraaiersteeg 2",
    "postal_code": "4931DP",
    "locality": "Geertruidenberg",
    "region": "Noord-Brabant",
    "latitude": "51.6998311",
    "longitude": "4.8576983"
  },
  {
    "name": "Haarstudio Diane",
    "street_address": "Maartvlinderstraat 20",
    "postal_code": "3905KE",
    "locality": "Veenendaal",
    "region": "Utrecht",
    "latitude": "52.03587040000001",
    "longitude": "5.5557036"
  },
  {
    "name": "Kapsalon Irmo",
    "street_address": "Kattenstraat 14",
    "postal_code": "4101BM",
    "locality": "Culemborg",
    "region": "Gelderland",
    "latitude": "51.9583368",
    "longitude": "5.2239412"
  },
  {
    "name": "Sandra´s Hairstyling@Home",
    "street_address": "Sadatstraat 3",
    "postal_code": "6671GA",
    "locality": "Zetten",
    "region": "Gelderland",
    "latitude": "51.9268386",
    "longitude": "5.7088769"
  },
  {
    "name": "Krista Haar & Make-up",
    "street_address": "Molenhoeven 5",
    "postal_code": "5472PX",
    "locality": "Loosbroek",
    "region": "Noord-Brabant",
    "latitude": "51.67663779999999",
    "longitude": "5.5076433"
  },
  {
    "name": "KATJA'S HOOFDZAAK",
    "street_address": "Hoogstraat 30",
    "postal_code": "4141BC",
    "locality": "Leerdam",
    "region": "Zuid-Holland",
    "latitude": "51.89079599999999",
    "longitude": "5.094841"
  },
  {
    "name": "HairbyLizz",
    "street_address": "M.C. Escherweg 2",
    "postal_code": "7425RJ",
    "locality": "Deventer",
    "region": "Overijssel",
    "latitude": "52.2639734",
    "longitude": "6.2324828"
  },
  {
    "name": "Hair by Mandy",
    "street_address": "Dagpauwoog 5",
    "postal_code": "5251GW",
    "locality": "Vlijmen",
    "region": "Noord-Brabant",
    "latitude": "51.7007688",
    "longitude": "5.2027288"
  },
  {
    "name": "Hairstyliste Angelique",
    "street_address": "Zwanenhorst 45",
    "postal_code": "5361TR",
    "locality": "Grave",
    "region": "Noord-Brabant",
    "latitude": "51.7540112",
    "longitude": "5.7273986"
  },
  {
    "name": "Barbershop de Achterhoek",
    "street_address": "Stationsstraat 28",
    "postal_code": "7005AT",
    "locality": "Doetinchem",
    "region": "Gelderland",
    "latitude": "51.9592088",
    "longitude": "6.291572200000001"
  },
  {
    "name": "Jes hairstyling",
    "street_address": "Ceres 47",
    "postal_code": "6681PR",
    "locality": "Bemmel",
    "region": "Gelderland",
    "latitude": "51.8929288",
    "longitude": "5.8813365"
  },
  {
    "name": "Hair@Sanne",
    "street_address": "Korenstraat 69",
    "postal_code": "4273CZ",
    "locality": "Hank",
    "region": "Noord-Brabant",
    "latitude": "51.7386012",
    "longitude": "4.896552"
  },
  {
    "name": "Kapper gochmer",
    "street_address": "St. Jacobslaan 275",
    "postal_code": "6533VC",
    "locality": "Nijmegen",
    "region": "Gelderland",
    "latitude": "51.8178335",
    "longitude": "5.8496636"
  },
  {
    "name": "HaarMaNi haarstylist",
    "street_address": "de Geerkamp 1136",
    "postal_code": "6545HE",
    "locality": "Nijmegen",
    "region": "Gelderland",
    "latitude": "51.82784299999999",
    "longitude": "5.8000532"
  },
  {
    "name": "Magic Hair by R.N.",
    "street_address": "Promenade 9",
    "postal_code": "6581BW",
    "locality": "Malden",
    "region": "Gelderland",
    "latitude": "51.7818615",
    "longitude": "5.8525151"
  },
  {
    "name": "de Haarsmit",
    "street_address": "Hertogstraat 11",
    "postal_code": "6511RV",
    "locality": "Nijmegen",
    "region": "Gelderland",
    "latitude": "51.8461465",
    "longitude": "5.8692199"
  },
  {
    "name": "Kapsalon Capelli",
    "street_address": "Doornroosjestraat 17 a",
    "postal_code": "6651TZ",
    "locality": "Druten",
    "region": "Gelderland",
    "latitude": "51.8956892",
    "longitude": "5.6021407"
  },
  {
    "name": "Hairstyling Mirjam",
    "street_address": "Engelse Tuin 24",
    "postal_code": "5272CB",
    "locality": "Sint-Michielsgestel",
    "region": "Noord-Brabant",
    "latitude": "51.6387041",
    "longitude": "5.3622828"
  },
  {
    "name": "kapsalon Zahra",
    "street_address": "Ida Gerhardtsingel 20",
    "postal_code": "7207CN",
    "locality": "Zutphen",
    "region": "Gelderland",
    "latitude": "52.1300016",
    "longitude": "6.2214602"
  },
  {
    "name": "Hairbox 27",
    "street_address": "Tilburgseweg 27",
    "postal_code": "5061CA",
    "locality": "Oisterwijk",
    "region": "Noord-Brabant",
    "latitude": "51.5776541",
    "longitude": "5.1794538"
  },
  {
    "name": "Haaratelier Rademaker by Carola",
    "street_address": "F C Kuijperstraat 24",
    "postal_code": "3761EG",
    "locality": "Soest",
    "region": "Utrecht",
    "latitude": "52.1592336",
    "longitude": "5.3704998"
  }
]