[
  {
    "name": "Kapsalon FrieStijl",
    "street_address": "Dirk IV-plein 9",
    "postal_code": "4223NJ",
    "locality": "Hoornaar",
    "region": "Zuid-Holland",
    "latitude": "51.878747",
    "longitude": "4.9483358"
  },
  {
    "name": "astrid@home kapster",
    "street_address": "Schoenmakersstraat 9",
    "postal_code": "5684ZH",
    "locality": "Best",
    "region": "Noord-Brabant",
    "latitude": "51.4921423",
    "longitude": "5.3956557"
  },
  {
    "name": "VIP Hair & More",
    "street_address": "Schuilenburglaan 24",
    "postal_code": "4033DK",
    "locality": "Lienden",
    "region": "Gelderland",
    "latitude": "51.9410947",
    "longitude": "5.5209692"
  },
  {
    "name": "Dalal Hairstyling",
    "street_address": "Queenstraat 58",
    "postal_code": "6663HD",
    "locality": "Nijmegen",
    "region": "Gelderland",
    "latitude": "51.8714345",
    "longitude": "5.8690628"
  },
  {
    "name": "Kapsalon Haarsalon Haar & Lifes..",
    "street_address": "Zandbosweg 108",
    "postal_code": "5751CH",
    "locality": "Deurne",
    "region": "Noord-Brabant",
    "latitude": "51.464737",
    "longitude": "5.7888477"
  },
  {
    "name": "Looks4all",
    "street_address": "Aalsburg 1707",
    "postal_code": "6602VA",
    "locality": "Wijchen",
    "region": "Gelderland",
    "latitude": "51.8104644",
    "longitude": "5.731667499999999"
  },
  {
    "name": "Blessed Cuts",
    "street_address": "Stationsstraat 16",
    "postal_code": "5281GD",
    "locality": "Boxtel",
    "region": "Noord-Brabant",
    "latitude": "51.58835329999999",
    "longitude": "5.323176999999999"
  },
  {
    "name": "Kapsalon Cas van den Broek",
    "street_address": "Westerpark 66",
    "postal_code": "5042MG",
    "locality": "Tilburg",
    "region": "Noord-Brabant",
    "latitude": "51.57201870000001",
    "longitude": "5.0495236"
  },
  {
    "name": "My Hair",
    "street_address": "Kenbelstraatje 43",
    "postal_code": "4711CC",
    "locality": "Sint Willebrord",
    "region": "Noord-Brabant",
    "latitude": "51.5581132",
    "longitude": "4.5867445"
  },
  {
    "name": "YOH. HAIR -  Your own Hair!",
    "street_address": "Fleursstraat 30",
    "postal_code": "5963AV",
    "locality": "Hegelsom",
    "region": "Limburg",
    "latitude": "51.4402528",
    "longitude": "6.0411673"
  },
  {
    "name": "Beauty Lounge Veldhoven",
    "street_address": "Willemstraat 2 a",
    "postal_code": "5503JN",
    "locality": "Veldhoven",
    "region": "Noord-Brabant",
    "latitude": "51.4154571",
    "longitude": "5.4194739"
  },
  {
    "name": "Trendy barbershop",
    "street_address": "Voorstraat 25",
    "postal_code": "3311EM",
    "locality": "Dordrecht",
    "region": "Zuid-Holland",
    "latitude": "51.8191111",
    "longitude": "4.6720852"
  },
  {
    "name": "Hairstyle Salon & Service",
    "street_address": "Oude Veer 2",
    "postal_code": "3353GS",
    "locality": "Papendrecht",
    "region": "Zuid-Holland",
    "latitude": "51.8251023",
    "longitude": "4.6844392"
  },
  {
    "name": "Krista Haar & Make-up",
    "street_address": "Molenhoeven 5",
    "postal_code": "5472PX",
    "locality": "Loosbroek",
    "region": "Noord-Brabant",
    "latitude": "51.67663779999999",
    "longitude": "5.5076433"
  },
  {
    "name": "By Wendy Hairstyling",
    "street_address": "Julianaplein 3",
    "postal_code": "6671CA",
    "locality": "Zetten",
    "region": "Gelderland",
    "latitude": "51.9300332",
    "longitude": "5.711564"
  },
  {
    "name": "Kapsalon Gaby van der Made",
    "street_address": "Graaf Gerhardstraat 17",
    "postal_code": "5913VP",
    "locality": "Venlo",
    "region": "Limburg",
    "latitude": "51.3687558",
    "longitude": "6.184416"
  },
  {
    "name": "De Kapsalon",
    "street_address": "Herman Gorterlaan 4",
    "postal_code": "5644SX",
    "locality": "Eindhoven",
    "region": "Noord-Brabant",
    "latitude": "51.4176576",
    "longitude": "5.479894799999999"
  },
  {
    "name": "Londa Hairstudio",
    "street_address": "Brugstraat 35",
    "postal_code": "5712AX",
    "locality": "Someren",
    "region": "Noord-Brabant",
    "latitude": "51.36356300000001",
    "longitude": "5.740057699999999"
  },
  {
    "name": "Hair-Joy Hair, Lashlift&Brows",
    "street_address": "De Volder 34",
    "postal_code": "5283ZD",
    "locality": "Boxtel",
    "region": "Noord-Brabant",
    "latitude": "51.5847519",
    "longitude": "5.3514187"
  },
  {
    "name": "My Hairstyle - by Yvonne",
    "street_address": "Vincent van Goghstraat 16",
    "postal_code": "5671GX",
    "locality": "Nuenen",
    "region": "Noord-Brabant",
    "latitude": "51.47456140000001",
    "longitude": "5.5506769"
  },
  {
    "name": "@ My Style",
    "street_address": "Beeksestraat 80",
    "postal_code": "4841GD",
    "locality": "Prinsenbeek",
    "region": "Noord-Brabant",
    "latitude": "51.6068669",
    "longitude": "4.7167745"
  },
  {
    "name": "Doevelaar Haarmode",
    "street_address": "Ysselsteynseweg 48",
    "postal_code": "5813BM",
    "locality": "Ysselsteyn",
    "region": "Limburg",
    "latitude": "51.49659010000001",
    "longitude": "5.9208888"
  },
  {
    "name": "Hairfashion By Marlon",
    "street_address": "Thornstraat 115",
    "postal_code": "6004JR",
    "locality": "Weert",
    "region": "Limburg",
    "latitude": "51.2536356",
    "longitude": "5.727756200000001"
  },
  {
    "name": "Elegance Hairdesign",
    "street_address": "Brunenberghof 3",
    "postal_code": "6004MA",
    "locality": "Weert",
    "region": "Limburg",
    "latitude": "51.2554288",
    "longitude": "5.7357492"
  },
  {
    "name": "De Barbier     Koziol Haarstudi..",
    "street_address": "Ginnekenweg 252",
    "postal_code": "4835NJ",
    "locality": "Breda",
    "region": "Noord-Brabant",
    "latitude": "51.5707599",
    "longitude": "4.7836645"
  },
  {
    "name": "M.H. Haarstyliste",
    "street_address": "O Lv Vrouw ter Duinenln 130",
    "postal_code": "4641RM",
    "locality": "Ossendrecht",
    "region": "Noord-Brabant",
    "latitude": "51.4024192",
    "longitude": "4.3426338"
  },
  {
    "name": "LUC BAUMGARTEN",
    "street_address": "Hazenkamplaan 23",
    "postal_code": "5345NR",
    "locality": "Oss",
    "region": "Noord-Brabant",
    "latitude": "51.7650094",
    "longitude": "5.4934867"
  },
  {
    "name": "Anja van Asseldonk Hairstyling",
    "street_address": "Cortenbachstraat 2",
    "postal_code": "5421KJ",
    "locality": "Gemert",
    "region": "Noord-Brabant",
    "latitude": "51.5557951",
    "longitude": "5.6863176"
  },
  {
    "name": "Desiree Hairstyling",
    "street_address": "Julianalaan 86",
    "postal_code": "5161BC",
    "locality": "Sprang-Capelle",
    "region": "Noord-Brabant",
    "latitude": "51.67863269999999",
    "longitude": "5.0168476"
  },
  {
    "name": "Lonneke’s Haarmode",
    "street_address": "Hoeksen Bogt 6",
    "postal_code": "5525BL",
    "locality": "Duizel",
    "region": "Noord-Brabant",
    "latitude": "51.3717098",
    "longitude": "5.2991567"
  },
  {
    "name": "D-Re-Style",
    "street_address": "Jeroen Boschstraat 64",
    "postal_code": "5121WZ",
    "locality": "Rijen",
    "region": "Noord-Brabant",
    "latitude": "51.5859999",
    "longitude": "4.9200197"
  },
  {
    "name": "Lia Haarstijl",
    "street_address": "Oisterwijkseweg 20",
    "postal_code": "5066XD",
    "locality": "Moergestel",
    "region": "Noord-Brabant",
    "latitude": "51.5481145",
    "longitude": "5.176233600000001"
  },
  {
    "name": "Haarmode Kathy",
    "street_address": "Breerijt 29",
    "postal_code": "5571JW",
    "locality": "Bergeijk",
    "region": "Noord-Brabant",
    "latitude": "51.3108085",
    "longitude": "5.338136400000001"
  },
  {
    "name": "Kapper Said",
    "street_address": "Verdiplein 99",
    "postal_code": "5049NR",
    "locality": "Tilburg",
    "region": "Noord-Brabant",
    "latitude": "51.5908768",
    "longitude": "5.078807299999999"
  },
  {
    "name": "Complete style",
    "street_address": "Fabriekstraat 10 a",
    "postal_code": "5753AH",
    "locality": "Deurne",
    "region": "Noord-Brabant",
    "latitude": "51.455763",
    "longitude": "5.7858982"
  },
  {
    "name": "Haarwerkservice Hoeksche Waard",
    "street_address": "Achterstraat 28",
    "postal_code": "3264AB",
    "locality": "Nieuw-Beijerland",
    "region": "Zuid-Holland",
    "latitude": "51.8112673",
    "longitude": "4.338786199999999"
  },
  {
    "name": "FreshCut Studio",
    "street_address": "Westwal 8",
    "postal_code": "4141AP",
    "locality": "Leerdam",
    "region": "Utrecht",
    "latitude": "51.8905447",
    "longitude": "5.0913072"
  },
  {
    "name": "Hair & Looks",
    "street_address": "Prins Hendrikstraat 116",
    "postal_code": "4835PS",
    "locality": "Breda",
    "region": "Noord-Brabant",
    "latitude": "51.5719459",
    "longitude": "4.7888128"
  },
  {
    "name": "van der Heijden Kappers  & beau..",
    "street_address": "'t Hofke 137",
    "postal_code": "5641AK",
    "locality": "Eindhoven",
    "region": "Noord-Brabant",
    "latitude": "51.4490276",
    "longitude": "5.5179078"
  },
  {
    "name": "MOOI HAAR",
    "street_address": "Fellenoordstraat 1",
    "postal_code": "4811TG",
    "locality": "Breda",
    "region": "Noord-Brabant",
    "latitude": "51.5866482",
    "longitude": "4.765915"
  },
  {
    "name": "HaarKlip",
    "street_address": "Breede Kampen 56",
    "postal_code": "4171AV",
    "locality": "Herwijnen",
    "region": "Gelderland",
    "latitude": "51.8246344",
    "longitude": "5.1320543"
  },
  {
    "name": "Haarmode Jolanda",
    "street_address": "Goudrenet 22",
    "postal_code": "5688VV",
    "locality": "Oirschot",
    "region": "Noord-Brabant",
    "latitude": "51.5104615",
    "longitude": "5.300584199999999"
  },
  {
    "name": "Dames- en Herenkapsalon Carella",
    "street_address": "Theemsweg 57 E",
    "postal_code": "3201LT",
    "locality": "Spijkenisse",
    "region": "Zuid-Holland",
    "latitude": "51.8491406",
    "longitude": "4.3421137"
  },
  {
    "name": "Danielle's Hairstyle",
    "street_address": "Einsteinstraat 13",
    "postal_code": "5756AX",
    "locality": "Vlierden",
    "region": "Noord-Brabant",
    "latitude": "51.4461295",
    "longitude": "5.7579626"
  },
  {
    "name": "'t Knipkoeriertje",
    "street_address": "Kapelstraat 12",
    "postal_code": "5561TW",
    "locality": "Riethoven",
    "region": "Noord-Brabant",
    "latitude": "51.36485889999999",
    "longitude": "5.388780199999999"
  },
  {
    "name": "Haarmode Pico Bello",
    "street_address": "Boulevard 68 A",
    "postal_code": "4701EW",
    "locality": "Roosendaal",
    "region": "Noord-Brabant",
    "latitude": "51.534633",
    "longitude": "4.4661791"
  },
  {
    "name": "D & M Haarmode",
    "street_address": "Mariaplein 5 A",
    "postal_code": "6685AT",
    "locality": "Haalderen",
    "region": "Gelderland",
    "latitude": "51.8868837",
    "longitude": "5.9312527"
  },
  {
    "name": "Herenkapsalon Marc Schoenmakers",
    "street_address": "Bosscheweg 45",
    "postal_code": "5281AH",
    "locality": "Boxtel",
    "region": "Noord-Brabant",
    "latitude": "51.5948796",
    "longitude": "5.324244699999999"
  },
  {
    "name": "Kapsalon Marli",
    "street_address": "Runstraat 8 C",
    "postal_code": "5374AC",
    "locality": "Schaijk",
    "region": "Noord-Brabant",
    "latitude": "51.7474123",
    "longitude": "5.6304246"
  },
  {
    "name": "Hairstyliste Angelique",
    "street_address": "Zwanenhorst 45",
    "postal_code": "5361TR",
    "locality": "Grave",
    "region": "Noord-Brabant",
    "latitude": "51.7540112",
    "longitude": "5.7273986"
  },
  {
    "name": "MG haarID",
    "street_address": "Kard. de Jongstraat 19",
    "postal_code": "5554RB",
    "locality": "Valkenswaard",
    "region": "Noord-Brabant",
    "latitude": "51.3526097",
    "longitude": "5.4504696"
  },
  {
    "name": "Different Choice",
    "street_address": "van Ghoorstraat 4",
    "postal_code": "6081BC",
    "locality": "Haelen",
    "region": "Limburg",
    "latitude": "51.2357539",
    "longitude": "5.9549559"
  },
  {
    "name": "Radha Hairstyling",
    "street_address": "Karstraat 66",
    "postal_code": "6851DM",
    "locality": "Huissen",
    "region": "Gelderland",
    "latitude": "51.9169731",
    "longitude": "5.926239"
  },
  {
    "name": "The Young Hair and Beauty",
    "street_address": "Irenestraat 3",
    "postal_code": "4132EP",
    "locality": "Vianen",
    "region": "Utrecht",
    "latitude": "51.9848238",
    "longitude": "5.0915123"
  },
  {
    "name": "HairfashionLizet",
    "street_address": "Marktstraat 21",
    "postal_code": "5171GM",
    "locality": "Kaatsheuvel",
    "region": "Noord-Brabant",
    "latitude": "51.6587904",
    "longitude": "5.0332301"
  },
  {
    "name": "Christa’s Hair at Home",
    "street_address": "Heinemanpad 19",
    "postal_code": "2951DC",
    "locality": "Alblasserdam",
    "region": "Zuid-Holland",
    "latitude": "51.8699448",
    "longitude": "4.662251200000001"
  },
  {
    "name": "Haarstudio KIK",
    "street_address": "Slutelakker 17",
    "postal_code": "5715CB",
    "locality": "Lierop",
    "region": "Noord-Brabant",
    "latitude": "51.419823",
    "longitude": "5.6845032"
  },
  {
    "name": "Haarstudio Hedwig",
    "street_address": "De Beemd 2",
    "postal_code": "5501CD",
    "locality": "Veldhoven",
    "region": "Noord-Brabant",
    "latitude": "51.4175864",
    "longitude": "5.3956537"
  },
  {
    "name": "Thuis bij Janneke",
    "street_address": "Damenweg 2",
    "postal_code": "6027NK",
    "locality": "Soerendonk",
    "region": "Noord-Brabant",
    "latitude": "51.3022487",
    "longitude": "5.5724217"
  },
  {
    "name": "Eva’s Haarmode",
    "street_address": "Nieuwe Rielseweg 31",
    "postal_code": "5051PD",
    "locality": "Goirle",
    "region": "Noord-Brabant",
    "latitude": "51.5233395",
    "longitude": "5.057766099999999"
  },
  {
    "name": "Barbiera's",
    "street_address": "Dishoekhof 1",
    "postal_code": "5043GS",
    "locality": "Tilburg",
    "region": "Noord-Brabant",
    "latitude": "51.5720454",
    "longitude": "5.049451299999999"
  },
  {
    "name": "Jes hairstyling",
    "street_address": "Ceres 47",
    "postal_code": "6681PR",
    "locality": "Bemmel",
    "region": "Gelderland",
    "latitude": "51.8929288",
    "longitude": "5.8813365"
  },
  {
    "name": "Latin@Haar",
    "street_address": "Kasteellaan 3",
    "postal_code": "5725AD",
    "locality": "Heusden",
    "region": "Noord-Brabant",
    "latitude": "51.3911436",
    "longitude": "5.7527193"
  },
  {
    "name": "Chelina's",
    "street_address": "Lijndraaiersteeg 2",
    "postal_code": "4931DP",
    "locality": "Geertruidenberg",
    "region": "Noord-Brabant",
    "latitude": "51.6998311",
    "longitude": "4.8576983"
  },
  {
    "name": "Hairstyliste Nancy",
    "street_address": "Weebosserweg 11",
    "postal_code": "5571LK",
    "locality": "Bergeijk",
    "region": "Noord-Brabant",
    "latitude": "51.3117808",
    "longitude": "5.340055"
  },
  {
    "name": "Penny Friedenberg-Kuiters",
    "street_address": "Klaverblad 13",
    "postal_code": "4661NA",
    "locality": "Halsteren",
    "region": "Noord-Brabant",
    "latitude": "51.5236005",
    "longitude": "4.277915399999999"
  },
  {
    "name": "Fluente Haarmode B.V.",
    "street_address": "Buurmalsenplein 4",
    "postal_code": "5043XL",
    "locality": "Tilburg",
    "region": "Noord-Brabant",
    "latitude": "51.58160609999999",
    "longitude": "5.018606"
  },
  {
    "name": "On Fleek Hair & Nails by Lynn",
    "street_address": "Broekkant 15",
    "postal_code": "6021CR",
    "locality": "Budel",
    "region": "Noord-Brabant",
    "latitude": "51.27889529999999",
    "longitude": "5.5837068"
  },
  {
    "name": "Kapsalon Ria Stals",
    "street_address": "Neelstraat 2 a",
    "postal_code": "6014BG",
    "locality": "Ittervoort",
    "region": "Limburg",
    "latitude": "51.17026329999999",
    "longitude": "5.8201196"
  },
  {
    "name": "Mooi Haar bij Marije",
    "street_address": "Burgemeester van der Havestraat 75",
    "postal_code": "4307BC",
    "locality": "Oosterland",
    "region": "Zeeland",
    "latitude": "51.6504766",
    "longitude": "4.0388388"
  },
  {
    "name": "Kapsalon Suus",
    "street_address": "St Theresiastraat 4",
    "postal_code": "5652ET",
    "locality": "Eindhoven",
    "region": "Noord-Brabant",
    "latitude": "51.4380693",
    "longitude": "5.4427585"
  },
  {
    "name": "Kapsalon Nathalie",
    "street_address": "Amansweg 13",
    "postal_code": "5455RD",
    "locality": "Wilbertoord",
    "region": "Noord-Brabant",
    "latitude": "51.6509545",
    "longitude": "5.7800012"
  },
  {
    "name": "Kapper Youp",
    "street_address": "Poolseweg 117 A",
    "postal_code": "4818CC",
    "locality": "Breda",
    "region": "Noord-Brabant",
    "latitude": "51.5788492",
    "longitude": "4.7940743"
  },
  {
    "name": "Daniëlla's Hair & Nail Styling",
    "street_address": "Burgemeester Rietmanstraat 4 A",
    "postal_code": "5421JX",
    "locality": "Gemert",
    "region": "Noord-Brabant",
    "latitude": "51.554505",
    "longitude": "5.69236"
  },
  {
    "name": "Thuiskapster Elles van der Hoek",
    "street_address": "Petronella Moensstraat 7",
    "postal_code": "4822VG",
    "locality": "Breda",
    "region": "Noord-Brabant",
    "latitude": "51.6101274",
    "longitude": "4.7280637"
  },
  {
    "name": "De Berkenhoeve",
    "street_address": "Berken 6",
    "postal_code": "5521PC",
    "locality": "Eersel",
    "region": "Noord-Brabant",
    "latitude": "51.3473298",
    "longitude": "5.3202703"
  },
  {
    "name": "Barber Juul",
    "street_address": "Adriaan van Bergenstraat 220",
    "postal_code": "4811SW",
    "locality": "Breda",
    "region": "Noord-Brabant",
    "latitude": "51.5905068",
    "longitude": "4.7708395"
  },
  {
    "name": "Hairstyling Good Vibes",
    "street_address": "Vlietstraat 3",
    "postal_code": "3371SX",
    "locality": "Hardinxveld-Giessendam",
    "region": "Zuid-Holland",
    "latitude": "51.8233254",
    "longitude": "4.8272516"
  },
  {
    "name": "Kapsalon De Hooftzaak",
    "street_address": "Beusakker 2",
    "postal_code": "5712MG",
    "locality": "Someren",
    "region": "Noord-Brabant",
    "latitude": "51.38457460000001",
    "longitude": "5.6996012"
  },
  {
    "name": "N-Joy Kappers",
    "street_address": "Voorstraat 14 a",
    "postal_code": "3286AX",
    "locality": "Klaaswaal",
    "region": "Zuid-Holland",
    "latitude": "51.76858439999999",
    "longitude": "4.4454256"
  },
  {
    "name": "Vice Versa uw kapster in de reg..",
    "street_address": "Bernhardstraat 25 , afdeling 1",
    "postal_code": "3281BC",
    "locality": "Numansdorp",
    "region": "Zuid-Holland",
    "latitude": "51.7297755",
    "longitude": "4.4338723"
  },
  {
    "name": "Jeanette's Hairspray",
    "street_address": "Bisschop van Mierlostraat 49",
    "postal_code": "5731GB",
    "locality": "Mierlo",
    "region": "Noord-Brabant",
    "latitude": "51.4413345",
    "longitude": "5.6221818"
  },
  {
    "name": "CoCo Hairstyling",
    "street_address": "Slikkenburg 14",
    "postal_code": "4691TC",
    "locality": "Tholen",
    "region": "Zeeland",
    "latitude": "51.533039",
    "longitude": "4.226979"
  },
  {
    "name": "Mooi bij Mieke",
    "street_address": "Hoogveldseweg 25 c",
    "postal_code": "5451AA",
    "locality": "Mill",
    "region": "Noord-Brabant",
    "latitude": "51.689995",
    "longitude": "5.7790965"
  },
  {
    "name": "Kapsalon Haarzuiver Eco Friendl..",
    "street_address": "Rauwenhoflaan 26",
    "postal_code": "4003DC",
    "locality": "Tiel",
    "region": "Gelderland",
    "latitude": "51.894114",
    "longitude": "5.405247"
  },
  {
    "name": "Scheer & Schaar",
    "street_address": "St. Jorisplein 6",
    "postal_code": "4205JA",
    "locality": "Gorinchem",
    "region": "Zuid-Holland",
    "latitude": "51.83930119999999",
    "longitude": "4.9633784"
  },
  {
    "name": "Kapsalon de Bogen",
    "street_address": "Oranje Nassaustraat 14",
    "postal_code": "5554AG",
    "locality": "Valkenswaard",
    "region": "Noord-Brabant",
    "latitude": "51.3546078",
    "longitude": "5.4582903"
  },
  {
    "name": "Kapsalon Mon Rêve",
    "street_address": "Reeweg Oost 26",
    "postal_code": "3312CR",
    "locality": "Dordrecht",
    "region": "Zuid-Holland",
    "latitude": "51.8088043",
    "longitude": "4.6800355"
  },
  {
    "name": "Creations by Nikie",
    "street_address": "Tapperstraat 69",
    "postal_code": "4204TS",
    "locality": "Gorinchem",
    "region": "Zuid-Holland",
    "latitude": "51.8385257",
    "longitude": "4.9481734"
  },
  {
    "name": "Hairbox 27",
    "street_address": "Tilburgseweg 27",
    "postal_code": "5061CA",
    "locality": "Oisterwijk",
    "region": "Noord-Brabant",
    "latitude": "51.5776541",
    "longitude": "5.1794538"
  },
  {
    "name": "Brabantse Barbers",
    "street_address": "Dorpstraat 35 A",
    "postal_code": "5504HA",
    "locality": "Veldhoven",
    "region": "Noord-Brabant",
    "latitude": "51.4041741",
    "longitude": "5.3975593"
  },
  {
    "name": "Beauty & Spa Maas en Waal",
    "street_address": "Rooijsestraat 11 a",
    "postal_code": "6621AH",
    "locality": "Dreumel",
    "region": "Gelderland",
    "latitude": "51.8431264",
    "longitude": "5.419243199999999"
  },
  {
    "name": "Mandy haarstyliste",
    "street_address": "Muzenlaan 1",
    "postal_code": "4731DS",
    "locality": "Oudenbosch",
    "region": "Noord-Brabant",
    "latitude": "51.5911525",
    "longitude": "4.548983799999999"
  },
  {
    "name": "Mooizo Haarzaak",
    "street_address": "De Korte Vore 11",
    "postal_code": "5531BB",
    "locality": "Bladel",
    "region": "Noord-Brabant",
    "latitude": "51.36529059999999",
    "longitude": "5.2158962"
  },
  {
    "name": "Kapsalon rooie sien",
    "street_address": "Esscheweg 4",
    "postal_code": "5271NB",
    "locality": "Sint-Michielsgestel",
    "region": "Noord-Brabant",
    "latitude": "51.6386656",
    "longitude": "5.3465492"
  },
  {
    "name": "Image by Christel",
    "street_address": "Nieuwlandsestraat 51",
    "postal_code": "5473RT",
    "locality": "Heeswijk Dinther",
    "region": "Noord-Brabant",
    "latitude": "51.6556434",
    "longitude": "5.4869143"
  },
  {
    "name": "Kapsalon de Bruyn",
    "street_address": "Broekhovenseweg 85",
    "postal_code": "5021LC",
    "locality": "Tilburg",
    "region": "Noord-Brabant",
    "latitude": "51.547115",
    "longitude": "5.0907385"
  },
  {
    "name": "Hair by Mandy",
    "street_address": "Dagpauwoog 5",
    "postal_code": "5251GW",
    "locality": "Vlijmen",
    "region": "Noord-Brabant",
    "latitude": "51.7007688",
    "longitude": "5.2027288"
  },
  {
    "name": "Fascino Kappers",
    "street_address": "Hoge Ham 93 A",
    "postal_code": "5104JC",
    "locality": "Dongen",
    "region": "Noord-Brabant",
    "latitude": "51.6280876",
    "longitude": "4.9406249"
  },
  {
    "name": "kappers Plein",
    "street_address": "Bloemerstraat 106",
    "postal_code": "6511EN",
    "locality": "Nijmegen",
    "region": "Gelderland",
    "latitude": "51.8456815",
    "longitude": "5.8617859"
  },
  {
    "name": "Friendly Hairdesign",
    "street_address": "Daalseweg 238",
    "postal_code": "6521GR",
    "locality": "Nijmegen",
    "region": "Gelderland",
    "latitude": "51.8377597",
    "longitude": "5.8758817"
  },
  {
    "name": "Kapsalon Hairjoy",
    "street_address": "Chrysantstraat 18",
    "postal_code": "5701EK",
    "locality": "Helmond",
    "region": "Noord-Brabant",
    "latitude": "51.4772901",
    "longitude": "5.676501099999999"
  },
  {
    "name": "Kappersplein",
    "street_address": "Bloemerstraat 106",
    "postal_code": "6511EN",
    "locality": "Nijmegen",
    "region": "Gelderland",
    "latitude": "51.8456815",
    "longitude": "5.8617859"
  },
  {
    "name": "Hairstyling van der Linden",
    "street_address": "Lakenvelder 11",
    "postal_code": "5507KV",
    "locality": "Veldhoven",
    "region": "Noord-Brabant",
    "latitude": "51.418826",
    "longitude": "5.371684"
  },
  {
    "name": "Kapsalon de la Rosa",
    "street_address": "Marconilaan 23 a",
    "postal_code": "5612HM",
    "locality": "Eindhoven",
    "region": "Noord-Brabant",
    "latitude": "51.4514489",
    "longitude": "5.463549"
  },
  {
    "name": "Kapsalon Shabo Vught",
    "street_address": "Helvoirtseweg 151",
    "postal_code": "5263EC",
    "locality": "Vught",
    "region": "Noord-Brabant",
    "latitude": "51.6564468",
    "longitude": "5.2888742"
  },
  {
    "name": "Barber Lounge Boxtel",
    "street_address": "Rechterstraat 11 a",
    "postal_code": "5281BS",
    "locality": "Boxtel",
    "region": "Noord-Brabant",
    "latitude": "51.58804910000001",
    "longitude": "5.325717099999999"
  },
  {
    "name": "Thuiskapper UB20",
    "street_address": "Akeleistraat 54",
    "postal_code": "6707BZ",
    "locality": "Wageningen",
    "region": "Gelderland",
    "latitude": "51.9762646",
    "longitude": "5.6706769"
  },
  {
    "name": "HairwizardofOss",
    "street_address": "Visstraat 58",
    "postal_code": "5345DJ",
    "locality": "Oss",
    "region": "Noord-Brabant",
    "latitude": "51.7734578",
    "longitude": "5.4943759"
  },
  {
    "name": "Stef kappers",
    "street_address": "Nieuwstraat 2 a",
    "postal_code": "5571BC",
    "locality": "Bergeijk",
    "region": "Noord-Brabant",
    "latitude": "51.3225634",
    "longitude": "5.3581936"
  },
  {
    "name": "HairLXRY",
    "street_address": "Korenmolen 49",
    "postal_code": "5057BA",
    "locality": "Berkel-Enschot",
    "region": "Noord-Brabant",
    "latitude": "51.5913177",
    "longitude": "5.1376293"
  },
  {
    "name": "Janine's Hairstyling",
    "street_address": "Reeweg 2",
    "postal_code": "4417PB",
    "locality": "Hansweert",
    "region": "Zeeland",
    "latitude": "51.4736628",
    "longitude": "4.0078922"
  },
  {
    "name": "Lizzy’s Hairsalon",
    "street_address": "Hoofdstraat 71 A",
    "postal_code": "5461JD",
    "locality": "Veghel",
    "region": "Noord-Brabant",
    "latitude": "51.61582",
    "longitude": "5.547237"
  },
  {
    "name": "Haar Kapperie",
    "street_address": "Karekietstraat 12",
    "postal_code": "4209BP",
    "locality": "Schelluinen",
    "region": "Zuid-Holland",
    "latitude": "51.845947",
    "longitude": "4.921168"
  },
  {
    "name": "Mooi by Haar",
    "street_address": "Lindenlaan 4",
    "postal_code": "5854AM",
    "locality": "Bergen",
    "region": "Limburg",
    "latitude": "51.603683",
    "longitude": "6.0470128"
  },
  {
    "name": "Knipsalon Bianca by Corinne",
    "street_address": "Smetsakker 7",
    "postal_code": "5625SG",
    "locality": "Eindhoven",
    "region": "Noord-Brabant",
    "latitude": "51.4693203",
    "longitude": "5.4847195"
  },
  {
    "name": "Haarstudio Joyfull By Joyce",
    "street_address": "Sander 4",
    "postal_code": "4871NA",
    "locality": "Etten-Leur",
    "region": "Noord-Brabant",
    "latitude": "51.5862127",
    "longitude": "4.6321463"
  },
  {
    "name": "By Marlinda",
    "street_address": "Haffmansstraat 7",
    "postal_code": "5735CR",
    "locality": "Aarle-Rixtel",
    "region": "Noord-Brabant",
    "latitude": "51.5121267",
    "longitude": "5.6434028"
  },
  {
    "name": "Hairfashion by Diana",
    "street_address": "Heuvelakkerstraat 1",
    "postal_code": "5356PD",
    "locality": "Neerloon",
    "region": "Noord-Brabant",
    "latitude": "51.789379",
    "longitude": "5.6743565"
  },
  {
    "name": "Twin Hair",
    "street_address": "Verbrughweg 32",
    "postal_code": "4033GP",
    "locality": "Lienden",
    "region": "Gelderland",
    "latitude": "51.943805",
    "longitude": "5.5180494"
  },
  {
    "name": "Barbershop Hoeksche Waard",
    "street_address": "Molendijk 5 a",
    "postal_code": "3281LT",
    "locality": "Numansdorp",
    "region": "Zuid-Holland",
    "latitude": "51.72624",
    "longitude": "4.4346271"
  },
  {
    "name": "Hannie van Rijnsbergen",
    "street_address": "Hoogveldweg 9",
    "postal_code": "5315AG",
    "locality": "Kerkwijk",
    "region": "Gelderland",
    "latitude": "51.7778438",
    "longitude": "5.2247521"
  },
  {
    "name": "Jolanda’s Hairstyling",
    "street_address": "Reeweg 37 A",
    "postal_code": "3342AA",
    "locality": "Hendrik-Ido-Ambacht",
    "region": "Zuid-Holland",
    "latitude": "51.84729799999999",
    "longitude": "4.6316542"
  },
  {
    "name": "Schaars",
    "street_address": "Meiveld 10",
    "postal_code": "5501KA",
    "locality": "Veldhoven",
    "region": "Noord-Brabant",
    "latitude": "51.4212885",
    "longitude": "5.4058476"
  },
  {
    "name": "Santella BV",
    "street_address": "Vijfhagen 158",
    "postal_code": "4812XT",
    "locality": "Breda",
    "region": "Noord-Brabant",
    "latitude": "51.58256660000001",
    "longitude": "4.7529894"
  },
  {
    "name": "Hairstyling by Alice",
    "street_address": "Oude Molenweg 50",
    "postal_code": "4841BN",
    "locality": "Prinsenbeek",
    "region": "Noord-Brabant",
    "latitude": "51.59140739999999",
    "longitude": "4.713852399999999"
  },
  {
    "name": "Thuiskapster Marlie",
    "street_address": "Florastraat 114",
    "postal_code": "6031XN",
    "locality": "Nederweert",
    "region": "Limburg",
    "latitude": "51.2828561",
    "longitude": "5.7379361"
  },
  {
    "name": "Natascha's Hairstyle",
    "street_address": "Schakelweg 162",
    "postal_code": "3192JP",
    "locality": "Hoogvliet Rotterdam",
    "region": "Zuid-Holland",
    "latitude": "51.8499402",
    "longitude": "4.3624589"
  },
  {
    "name": "Laurie's Knipsalon",
    "street_address": "Jhr Mr A F de Savornin Lohmanstraat 64",
    "postal_code": "3214XB",
    "locality": "Zuidland",
    "region": "Zuid-Holland",
    "latitude": "51.8193189",
    "longitude": "4.264654000000001"
  },
  {
    "name": "FabulouS hair",
    "street_address": "Lange Voren 45",
    "postal_code": "5541RS",
    "locality": "Reusel",
    "region": "Noord-Brabant",
    "latitude": "51.3649172",
    "longitude": "5.170848599999999"
  },
  {
    "name": "kapsalon _Nicole_",
    "street_address": "Mierloseweg 51 A",
    "postal_code": "5707AC",
    "locality": "Helmond",
    "region": "Noord-Brabant",
    "latitude": "51.47661859999999",
    "longitude": "5.6429956"
  },
  {
    "name": "Haarstudio Ramune",
    "street_address": "Ambachtstraat 3",
    "postal_code": "5481SM",
    "locality": "Schijndel",
    "region": "Noord-Brabant",
    "latitude": "51.6061177",
    "longitude": "5.4452171"
  },
  {
    "name": "1954",
    "street_address": "Lisdoddelaan 18",
    "postal_code": "4143VG",
    "locality": "Leerdam",
    "region": "Zuid-Holland",
    "latitude": "51.9007241",
    "longitude": "5.0880833"
  },
  {
    "name": "Mariska Taks hair & make-up",
    "street_address": "Toernooiveld 16",
    "postal_code": "4873DK",
    "locality": "Etten-Leur",
    "region": "Noord-Brabant",
    "latitude": "51.5689964",
    "longitude": "4.6543918"
  },
  {
    "name": "Mandy's Hairtime",
    "street_address": "Enclaveberg 170",
    "postal_code": "4708EC",
    "locality": "Roosendaal",
    "region": "Noord-Brabant",
    "latitude": "51.5150368",
    "longitude": "4.4419738"
  },
  {
    "name": "Haarmode van Mierlo",
    "street_address": "Westermarkt 20",
    "postal_code": "5042MD",
    "locality": "Tilburg",
    "region": "Noord-Brabant",
    "latitude": "51.5699915",
    "longitude": "5.0541544"
  },
  {
    "name": "Lookz by Janneke",
    "street_address": "Mr. W.M. Kolffstraat 13",
    "postal_code": "4158EP",
    "locality": "Deil",
    "region": "Gelderland",
    "latitude": "51.884624",
    "longitude": "5.2301769"
  },
  {
    "name": "kapsalon ISSA",
    "street_address": "Spoorlaan 128",
    "postal_code": "5061HD",
    "locality": "Oisterwijk",
    "region": "Noord-Brabant",
    "latitude": "51.5828173",
    "longitude": "5.1989027"
  },
  {
    "name": "Puur Geknipt",
    "street_address": "Voorstraat 434",
    "postal_code": "3311CX",
    "locality": "Dordrecht",
    "region": "Zuid-Holland",
    "latitude": "51.8136252",
    "longitude": "4.659932299999999"
  },
  {
    "name": "M. van der Steen",
    "street_address": "Stationsplein 131",
    "postal_code": "5211BP",
    "locality": "'s-Hertogenbosch",
    "region": "Noord-Brabant",
    "latitude": "51.6905789",
    "longitude": "5.2946433"
  },
  {
    "name": "Hair & Beauty Maria",
    "street_address": "Kalverbos 1 B",
    "postal_code": "4001AJ",
    "locality": "Tiel",
    "region": "Gelderland",
    "latitude": "51.8878479",
    "longitude": "5.4316359"
  },
  {
    "name": "Kapsalon De Haariaan",
    "street_address": "Rustenburgstraat 27",
    "postal_code": "3297LE",
    "locality": "Puttershoek",
    "region": "Zuid-Holland",
    "latitude": "51.8089692",
    "longitude": "4.5545642"
  },
  {
    "name": "HaarMaNi haarstylist",
    "street_address": "de Geerkamp 1136",
    "postal_code": "6545HE",
    "locality": "Nijmegen",
    "region": "Gelderland",
    "latitude": "51.82784299999999",
    "longitude": "5.8000532"
  },
  {
    "name": "Williams & Grey",
    "street_address": "Van 't Santstraat 1",
    "postal_code": "6523BA",
    "locality": "Nijmegen",
    "region": "Gelderland",
    "latitude": "51.8354588",
    "longitude": "5.8746439"
  },
  {
    "name": "New Hair Styling",
    "street_address": "Aardbeivlinder 119",
    "postal_code": "4007HA",
    "locality": "Tiel",
    "region": "Gelderland",
    "latitude": "51.8658173",
    "longitude": "5.402830300000001"
  },
  {
    "name": "MOOD",
    "street_address": "van Ommerenstraat 49",
    "postal_code": "5708KD",
    "locality": "Helmond",
    "region": "Noord-Brabant",
    "latitude": "51.49006860000001",
    "longitude": "5.6209716"
  },
  {
    "name": "Haarzo",
    "street_address": "Hooftlanden 24",
    "postal_code": "4251BE",
    "locality": "Werkendam",
    "region": "Noord-Brabant",
    "latitude": "51.8093458",
    "longitude": "4.8894161"
  },
  {
    "name": "Kapsalon Hair & Looks",
    "street_address": "Heuveleind 4",
    "postal_code": "4901LL",
    "locality": "Oosterhout",
    "region": "Noord-Brabant",
    "latitude": "51.6431968",
    "longitude": "4.8555284"
  },
  {
    "name": "Gökhie's Barbershop",
    "street_address": "Overtoompassage 8",
    "postal_code": "3353HE",
    "locality": "Papendrecht",
    "region": "Zuid-Holland",
    "latitude": "51.8253733",
    "longitude": "4.6853774"
  },
  {
    "name": "Haarstudio Van de Ven - Voor He..",
    "street_address": "Haarendijk 48",
    "postal_code": "5076TM",
    "locality": "Haaren",
    "region": "Noord-Brabant",
    "latitude": "51.5998756",
    "longitude": "5.2345545"
  },
  {
    "name": "Herenkapper aan huis Ridderkerk",
    "street_address": "Buizerdstraat 33",
    "postal_code": "3334SC",
    "locality": "Zwijndrecht",
    "region": "Zuid-Holland",
    "latitude": "51.8142401",
    "longitude": "4.6134294"
  },
  {
    "name": "City Coiffures",
    "street_address": "Prins Hendrikstraat 160",
    "postal_code": "4835PT",
    "locality": "Breda",
    "region": "Noord-Brabant",
    "latitude": "51.5714549",
    "longitude": "4.7897872"
  },
  {
    "name": "Diana Liefting",
    "street_address": "Polderboom 5",
    "postal_code": "3267BH",
    "locality": "Goudswaard",
    "region": "Zuid-Holland",
    "latitude": "51.7935605",
    "longitude": "4.2812123"
  },
  {
    "name": "Budgetkapper Zwijndrecht",
    "street_address": "Buizerdstraat 33",
    "postal_code": "3334SC",
    "locality": "Zwijndrecht",
    "region": "Zuid-Holland",
    "latitude": "51.8142444",
    "longitude": "4.6133985"
  },
  {
    "name": "Piep & Lief",
    "street_address": "Weerstraat 18",
    "postal_code": "4001LD",
    "locality": "Tiel",
    "region": "Gelderland",
    "latitude": "51.88681210000001",
    "longitude": "5.4378378"
  },
  {
    "name": "Joan Althof",
    "street_address": "Klooster Leuterstraat 22 b",
    "postal_code": "3961AZ",
    "locality": "Wijk bij Duurstede",
    "region": "Utrecht",
    "latitude": "51.9724831",
    "longitude": "5.3468909"
  },
  {
    "name": "kapper in de buurt",
    "street_address": "Iepenlaan 43",
    "postal_code": "3203XV",
    "locality": "Spijkenisse",
    "region": "Zuid-Holland",
    "latitude": "51.84275030000001",
    "longitude": "4.3432197"
  },
  {
    "name": "Hairfantasy Joice",
    "street_address": "Oude Boterdijk 26",
    "postal_code": "6582AT",
    "locality": "Heumen",
    "region": "Gelderland",
    "latitude": "51.765727",
    "longitude": "5.8442618"
  },
  {
    "name": "Eli’s kappers",
    "street_address": "Julianaplein 3",
    "postal_code": "6671CA",
    "locality": "Zetten",
    "region": "Gelderland",
    "latitude": "51.9300357",
    "longitude": "5.7115125"
  },
  {
    "name": "Stylish Kappers",
    "street_address": "Heuvel 30",
    "postal_code": "5492AD",
    "locality": "Sint-Oedenrode",
    "region": "Noord-Brabant",
    "latitude": "51.562894",
    "longitude": "5.4592597"
  },
  {
    "name": "Kapsalon Bij Nienke",
    "street_address": "Oerlesestraat 63",
    "postal_code": "5021TT",
    "locality": "Tilburg",
    "region": "Noord-Brabant",
    "latitude": "51.5471684",
    "longitude": "5.0800842"
  },
  {
    "name": "hairstyling Corine",
    "street_address": "Oud Kerkpad 42",
    "postal_code": "4721SC",
    "locality": "Schijf",
    "region": "Noord-Brabant",
    "latitude": "51.5087561",
    "longitude": "4.5609497"
  },
  {
    "name": "Haar en nagelstyling Karianne",
    "street_address": "Lekdijk-Oost 58",
    "postal_code": "2861GB",
    "locality": "Bergambacht",
    "region": "Zuid-Holland",
    "latitude": "51.9244043",
    "longitude": "4.7986489"
  },
  {
    "name": "Hip & Zo kappers",
    "street_address": "Havendijk 61",
    "postal_code": "5017AL",
    "locality": "Tilburg",
    "region": "Noord-Brabant",
    "latitude": "51.5532463",
    "longitude": "5.100048699999999"
  },
  {
    "name": "Kapsalon Capelli",
    "street_address": "Doornroosjestraat 17 a",
    "postal_code": "6651TZ",
    "locality": "Druten",
    "region": "Gelderland",
    "latitude": "51.8956892",
    "longitude": "5.6021407"
  },
  {
    "name": "Monsieur Champagne",
    "street_address": "Leenderweg 65 B",
    "postal_code": "5614HL",
    "locality": "Eindhoven",
    "region": "Noord-Brabant",
    "latitude": "51.4269173",
    "longitude": "5.4889578"
  },
  {
    "name": "Puur-Krul Krullenkapsalon",
    "street_address": "Vianendreef 93",
    "postal_code": "4841LE",
    "locality": "Prinsenbeek",
    "region": "Noord-Brabant",
    "latitude": "51.5974946",
    "longitude": "4.6971647"
  },
  {
    "name": "TEAM Kappers",
    "street_address": "Kerkbuurt 55",
    "postal_code": "3361BC",
    "locality": "Sliedrecht",
    "region": "Zuid-Holland",
    "latitude": "51.8202631",
    "longitude": "4.774003"
  },
  {
    "name": "Haarinstituut Ingrid Adriaensen",
    "street_address": "Hoofdstraat 96",
    "postal_code": "5121JH",
    "locality": "Rijen",
    "region": "Noord-Brabant",
    "latitude": "51.5930011",
    "longitude": "4.917523200000001"
  },
  {
    "name": "Cindy Haar Salon",
    "street_address": "Heksenkring 30",
    "postal_code": "4823JS",
    "locality": "Breda",
    "region": "Noord-Brabant",
    "latitude": "51.6245607",
    "longitude": "4.7437251"
  },
  {
    "name": "Haar & Co",
    "street_address": "Berkenakker 13",
    "postal_code": "4855BD",
    "locality": "Galder",
    "region": "Noord-Brabant",
    "latitude": "51.5171568",
    "longitude": "4.7762215"
  },
  {
    "name": "Hairtrends For All",
    "street_address": "Pastoor Spieringsstraat 219",
    "postal_code": "5401GT",
    "locality": "Uden",
    "region": "Noord-Brabant",
    "latitude": "51.6599367",
    "longitude": "5.6159094"
  },
  {
    "name": "Kapsalon Anja",
    "street_address": "Kleine Heistraat 16 - 434",
    "postal_code": "4884ME",
    "locality": "Wernhout",
    "region": "Noord-Brabant",
    "latitude": "51.4335331",
    "longitude": "4.6177839"
  },
  {
    "name": "Hair by DDM",
    "street_address": "Torenpad 14 A",
    "postal_code": "4872XN",
    "locality": "Etten-Leur",
    "region": "Noord-Brabant",
    "latitude": "51.5694107",
    "longitude": "4.638908"
  },
  {
    "name": "Dana",
    "street_address": "Lindestraat 15",
    "postal_code": "4731CL",
    "locality": "Oudenbosch",
    "region": "Noord-Brabant",
    "latitude": "51.5888759",
    "longitude": "4.5406622"
  },
  {
    "name": "Mohair by Angélique",
    "street_address": "Weislag 7",
    "postal_code": "5221AZ",
    "locality": "'s-Hertogenbosch",
    "region": "Noord-Brabant",
    "latitude": "51.723798",
    "longitude": "5.2673215"
  },
  {
    "name": "All (a)round Hairstyling",
    "street_address": "Spletting 33",
    "postal_code": "4871JE",
    "locality": "Etten-Leur",
    "region": "Noord-Brabant",
    "latitude": "51.5930129",
    "longitude": "4.6542335"
  },
  {
    "name": "KATJA'S HOOFDZAAK",
    "street_address": "Hoogstraat 30",
    "postal_code": "4141BC",
    "locality": "Leerdam",
    "region": "Zuid-Holland",
    "latitude": "51.89079599999999",
    "longitude": "5.094841"
  },
  {
    "name": "Your hair & nails",
    "street_address": "Ingen Nulandtstraat 7",
    "postal_code": "6675AL",
    "locality": "Valburg",
    "region": "Gelderland",
    "latitude": "51.91243",
    "longitude": "5.7937071"
  },
  {
    "name": "Hair Touch by Myrthe",
    "street_address": "Stormezandeweg 26",
    "postal_code": "4424ER",
    "locality": "Wemeldinge",
    "region": "Zeeland",
    "latitude": "51.519545",
    "longitude": "4.0001745"
  },
  {
    "name": "Hairstyling Mirjam",
    "street_address": "Engelse Tuin 24",
    "postal_code": "5272CB",
    "locality": "Sint-Michielsgestel",
    "region": "Noord-Brabant",
    "latitude": "51.6387041",
    "longitude": "5.3622828"
  },
  {
    "name": "Beauty Salon Daniela",
    "street_address": "Schubertlaan 16 A",
    "postal_code": "5653EM",
    "locality": "Eindhoven",
    "region": "Noord-Brabant",
    "latitude": "51.4266273",
    "longitude": "5.455325999999999"
  },
  {
    "name": "Hair @ Home by Anita",
    "street_address": "Sint Jozefstraat 48",
    "postal_code": "5753AW",
    "locality": "Deurne",
    "region": "Noord-Brabant",
    "latitude": "51.4504441",
    "longitude": "5.785888"
  },
  {
    "name": "HairOscope",
    "street_address": "Hoogstraat 14 a",
    "postal_code": "6001EV",
    "locality": "Weert",
    "region": "Limburg",
    "latitude": "51.254593",
    "longitude": "5.7075665"
  },
  {
    "name": "Thuiskapster Bea",
    "street_address": "Van Egmondstraat 17",
    "postal_code": "4143BN",
    "locality": "Leerdam",
    "region": "Utrecht",
    "latitude": "51.9001525",
    "longitude": "5.0926865"
  },
  {
    "name": "Liesual",
    "street_address": "Pastoor van Schijndelstraat 16",
    "postal_code": "5469PT",
    "locality": "Erp",
    "region": "Noord-Brabant",
    "latitude": "51.5598989",
    "longitude": "5.6232384"
  },
  {
    "name": "Hair@Sanne",
    "street_address": "Korenstraat 69",
    "postal_code": "4273CZ",
    "locality": "Hank",
    "region": "Noord-Brabant",
    "latitude": "51.7386012",
    "longitude": "4.896552"
  },
  {
    "name": "de Haarsmit",
    "street_address": "Hertogstraat 11",
    "postal_code": "6511RV",
    "locality": "Nijmegen",
    "region": "Gelderland",
    "latitude": "51.8461465",
    "longitude": "5.8692199"
  },
  {
    "name": "Magic Hair by R.N.",
    "street_address": "Promenade 9",
    "postal_code": "6581BW",
    "locality": "Malden",
    "region": "Gelderland",
    "latitude": "51.7818615",
    "longitude": "5.8525151"
  },
  {
    "name": "A La Fran",
    "street_address": "de Lingert 6401",
    "postal_code": "6605DZ",
    "locality": "Wijchen",
    "region": "Gelderland",
    "latitude": "51.7910048",
    "longitude": "5.737591999999999"
  },
  {
    "name": "Sandra´s Hairstyling@Home",
    "street_address": "Sadatstraat 3",
    "postal_code": "6671GA",
    "locality": "Zetten",
    "region": "Gelderland",
    "latitude": "51.9268386",
    "longitude": "5.7088769"
  },
  {
    "name": "House of Beauty Lorraine",
    "street_address": "Polderlaan 8",
    "postal_code": "3241SK",
    "locality": "Middelharnis",
    "region": "Zuid-Holland",
    "latitude": "51.7701557",
    "longitude": "4.1917366"
  },
  {
    "name": "Colorlab by Karin",
    "street_address": "Voorstraat 384",
    "postal_code": "3311CX",
    "locality": "Dordrecht",
    "region": "Zuid-Holland",
    "latitude": "51.8134251",
    "longitude": "4.6618947"
  },
  {
    "name": "Will's Hairstyling Barbershop",
    "street_address": "Dokter van de Wouwstraat 46",
    "postal_code": "6031HC",
    "locality": "Nederweert",
    "region": "Limburg",
    "latitude": "51.2901967",
    "longitude": "5.7464176"
  },
  {
    "name": "Kapper gochmer",
    "street_address": "St. Jacobslaan 275",
    "postal_code": "6533VC",
    "locality": "Nijmegen",
    "region": "Gelderland",
    "latitude": "51.8178335",
    "longitude": "5.8496636"
  }
]