[
  {
    "name": "Trendz Kappers",
    "street_address": "Hoflaan 130",
    "postal_code": "2691AW",
    "locality": "'s-Gravenzande",
    "region": "Zuid-Holland",
    "latitude": "52.00549059999999",
    "longitude": "4.1686442"
  },
  {
    "name": "Herenkapper aan huis Ridderkerk",
    "street_address": "Buizerdstraat 33",
    "postal_code": "3334SC",
    "locality": "Zwijndrecht",
    "region": "Zuid-Holland",
    "latitude": "51.8142401",
    "longitude": "4.6134294"
  },
  {
    "name": "By yoel Abcoude",
    "street_address": "Stationsstraat 15",
    "postal_code": "1391GL",
    "locality": "Abcoude",
    "region": "Utrecht",
    "latitude": "52.2720251",
    "longitude": "4.975498099999999"
  },
  {
    "name": "Sanne's Haarsalon",
    "street_address": "Dirk de Derdelaan 44",
    "postal_code": "3132HJ",
    "locality": "Vlaardingen",
    "region": "Zuid-Holland",
    "latitude": "51.9155157",
    "longitude": "4.3176273"
  },
  {
    "name": "Fes de Barber",
    "street_address": "Gildenburg 74 A unit 2",
    "postal_code": "2804VK",
    "locality": "Gouda",
    "region": "Zuid-Holland",
    "latitude": "52.0315625",
    "longitude": "4.7030651"
  },
  {
    "name": "Salon Irma",
    "street_address": "Zederikstraat 11",
    "postal_code": "4132XD",
    "locality": "Vianen",
    "region": "Utrecht",
    "latitude": "51.9899077",
    "longitude": "5.090684500000001"
  },
  {
    "name": "Kap-ster Vlaardingen",
    "street_address": "Schiedamseweg 21",
    "postal_code": "3134BA",
    "locality": "Vlaardingen",
    "region": "Zuid-Holland",
    "latitude": "51.9094693",
    "longitude": "4.3450978"
  },
  {
    "name": "kapper in de buurt",
    "street_address": "Iepenlaan 43",
    "postal_code": "3203XV",
    "locality": "Spijkenisse",
    "region": "Zuid-Holland",
    "latitude": "51.84275030000001",
    "longitude": "4.3432197"
  },
  {
    "name": "xMandies",
    "street_address": "Stadhoudersweg 92 D",
    "postal_code": "3039CJ",
    "locality": "Rotterdam",
    "region": "Zuid-Holland",
    "latitude": "51.9306825",
    "longitude": "4.4608605"
  },
  {
    "name": "Knippen & Meer",
    "street_address": "Keenenburgweg 13",
    "postal_code": "2636GK",
    "locality": "Schipluiden",
    "region": "Zuid-Holland",
    "latitude": "51.9764116",
    "longitude": "4.3172396"
  },
  {
    "name": "Etherealbeauty",
    "street_address": "Adriaen van Ostadelaan 20",
    "postal_code": "3583AJ",
    "locality": "Utrecht",
    "region": "Utrecht",
    "latitude": "52.08441490000001",
    "longitude": "5.1387591"
  },
  {
    "name": "ALLURE Beauty Bar",
    "street_address": "Heereweg 110",
    "postal_code": "2161BM",
    "locality": "Lisse",
    "region": "Zuid-Holland",
    "latitude": "52.26260329999999",
    "longitude": "4.5558467"
  },
  {
    "name": "Ashley Schenk",
    "street_address": "Dorpsstraat 31",
    "postal_code": "2661CD",
    "locality": "Bergschenhoek",
    "region": "Zuid-Holland",
    "latitude": "51.98879789999999",
    "longitude": "4.4998434"
  },
  {
    "name": "House of Beauty Lorraine",
    "street_address": "Polderlaan 8",
    "postal_code": "3241SK",
    "locality": "Middelharnis",
    "region": "Zuid-Holland",
    "latitude": "51.7701557",
    "longitude": "4.1917366"
  },
  {
    "name": "Hair@Sanne",
    "street_address": "Korenstraat 69",
    "postal_code": "4273CZ",
    "locality": "Hank",
    "region": "Noord-Brabant",
    "latitude": "51.7386012",
    "longitude": "4.896552"
  },
  {
    "name": "Kapsalon Haarzuiver Eco Friendl..",
    "street_address": "Rauwenhoflaan 26",
    "postal_code": "4003DC",
    "locality": "Tiel",
    "region": "Gelderland",
    "latitude": "51.894114",
    "longitude": "5.405247"
  },
  {
    "name": "1954",
    "street_address": "Lisdoddelaan 18",
    "postal_code": "4143VG",
    "locality": "Leerdam",
    "region": "Zuid-Holland",
    "latitude": "51.9007241",
    "longitude": "5.0880833"
  },
  {
    "name": "Formidable Kappers",
    "street_address": "Korte Mare 30",
    "postal_code": "2312NN",
    "locality": "Leiden",
    "region": "Zuid-Holland",
    "latitude": "52.1629441",
    "longitude": "4.4901697"
  },
  {
    "name": "Meerkappers",
    "street_address": "Wieger Bruinlaan 62",
    "postal_code": "2132AX",
    "locality": "Hoofddorp",
    "region": "Noord-Holland",
    "latitude": "52.3071803",
    "longitude": "4.7009224"
  },
  {
    "name": "Haarinstituut Ingrid Adriaensen",
    "street_address": "Hoofdstraat 96",
    "postal_code": "5121JH",
    "locality": "Rijen",
    "region": "Noord-Brabant",
    "latitude": "51.5930011",
    "longitude": "4.917523200000001"
  },
  {
    "name": "La Diva's Hairstyle",
    "street_address": "Harkulo 78",
    "postal_code": "3085MK",
    "locality": "Rotterdam",
    "region": "Zuid-Holland",
    "latitude": "51.8746589",
    "longitude": "4.4810012"
  },
  {
    "name": "Haarsessies",
    "street_address": "Hunzestraat 2",
    "postal_code": "3522EB",
    "locality": "Utrecht",
    "region": "Utrecht",
    "latitude": "52.07053699999999",
    "longitude": "5.1124972"
  },
  {
    "name": "Le Beau Hair Salon",
    "street_address": "Mariëndijk 44",
    "postal_code": "2675SX",
    "locality": "Honselersdijk",
    "region": "Zuid-Holland",
    "latitude": "52.0132346",
    "longitude": "4.2408446"
  },
  {
    "name": "Thairapy by Brenda",
    "street_address": "Zwanenlaan 11",
    "postal_code": "2461BM",
    "locality": "Ter Aar",
    "region": "Zuid-Holland",
    "latitude": "52.168536",
    "longitude": "4.7026961"
  },
  {
    "name": "Hairstyle Salon & Service",
    "street_address": "Oude Veer 2",
    "postal_code": "3353GS",
    "locality": "Papendrecht",
    "region": "Zuid-Holland",
    "latitude": "51.8251023",
    "longitude": "4.6844392"
  },
  {
    "name": "HairForceOne luxury styling Mon..",
    "street_address": "Stadhouderslaan 83 A",
    "postal_code": "3417TV",
    "locality": "Montfoort",
    "region": "Utrecht",
    "latitude": "52.03777299999999",
    "longitude": "4.952107"
  },
  {
    "name": "Totally Hair & Beauty",
    "street_address": "Boterzwin 1206",
    "postal_code": "1788VV",
    "locality": "Julianadorp",
    "region": "Noord-Holland",
    "latitude": "52.8853592",
    "longitude": "4.7372324"
  },
  {
    "name": "Mandy haarstyliste",
    "street_address": "Muzenlaan 1",
    "postal_code": "4731DS",
    "locality": "Oudenbosch",
    "region": "Noord-Brabant",
    "latitude": "51.5911525",
    "longitude": "4.548983799999999"
  },
  {
    "name": "Penny Friedenberg-Kuiters",
    "street_address": "Klaverblad 13",
    "postal_code": "4661NA",
    "locality": "Halsteren",
    "region": "Noord-Brabant",
    "latitude": "51.5236005",
    "longitude": "4.277915399999999"
  },
  {
    "name": "Buddies Hairdesign",
    "street_address": "De Passage 13",
    "postal_code": "3641AK",
    "locality": "Mijdrecht",
    "region": "Utrecht",
    "latitude": "52.206677",
    "longitude": "4.865813999999999"
  },
  {
    "name": "Kapsalon Aline",
    "street_address": "Brink 1",
    "postal_code": "3947NS",
    "locality": "Langbroek",
    "region": "Utrecht",
    "latitude": "52.01094399999999",
    "longitude": "5.327018199999999"
  },
  {
    "name": "De Barbier     Koziol Haarstudi..",
    "street_address": "Ginnekenweg 252",
    "postal_code": "4835NJ",
    "locality": "Breda",
    "region": "Noord-Brabant",
    "latitude": "51.5707599",
    "longitude": "4.7836645"
  },
  {
    "name": "Haar en nagelstyling Karianne",
    "street_address": "Lekdijk-Oost 58",
    "postal_code": "2861GB",
    "locality": "Bergambacht",
    "region": "Zuid-Holland",
    "latitude": "51.9244043",
    "longitude": "4.7986489"
  },
  {
    "name": "Lookz by Janneke",
    "street_address": "Mr. W.M. Kolffstraat 13",
    "postal_code": "4158EP",
    "locality": "Deil",
    "region": "Gelderland",
    "latitude": "51.884624",
    "longitude": "5.2301769"
  },
  {
    "name": "Haaratelier Marjon!",
    "street_address": "Drapenierstraat 18",
    "postal_code": "2011WZ",
    "locality": "Haarlem",
    "region": "Noord-Holland",
    "latitude": "52.37909029999999",
    "longitude": "4.6298163"
  },
  {
    "name": "De Natuurlijke Kapper",
    "street_address": "Verdihof 28",
    "postal_code": "2402VC",
    "locality": "Alphen aan den Rijn",
    "region": "Zuid-Holland",
    "latitude": "52.14565380000001",
    "longitude": "4.6677522"
  },
  {
    "name": "Kapsalon La Perla",
    "street_address": "Van Starkenborghhof 80",
    "postal_code": "3527HB",
    "locality": "Utrecht",
    "region": "Utrecht",
    "latitude": "52.0742075",
    "longitude": "5.0941572"
  },
  {
    "name": "Tis Haarzaak",
    "street_address": "Da Costastraat 30",
    "postal_code": "2406AT",
    "locality": "Alphen aan den Rijn",
    "region": "Zuid-Holland",
    "latitude": "52.1279675",
    "longitude": "4.668183099999999"
  },
  {
    "name": "Thuiskapper Mindy",
    "street_address": "Molenstraat 46",
    "postal_code": "3433CN",
    "locality": "Nieuwegein",
    "region": "Utrecht",
    "latitude": "52.00405869999999",
    "longitude": "5.0934754"
  },
  {
    "name": "Topkop",
    "street_address": "Boerhaaveweg 54",
    "postal_code": "3401MN",
    "locality": "IJsselstein",
    "region": "Utrecht",
    "latitude": "52.0159511",
    "longitude": "5.0565918"
  },
  {
    "name": "FreshCut Studio",
    "street_address": "Westwal 8",
    "postal_code": "4141AP",
    "locality": "Leerdam",
    "region": "Utrecht",
    "latitude": "51.8905447",
    "longitude": "5.0913072"
  },
  {
    "name": "Natascha's Hairstyle",
    "street_address": "Schakelweg 162",
    "postal_code": "3192JP",
    "locality": "Hoogvliet Rotterdam",
    "region": "Zuid-Holland",
    "latitude": "51.8499402",
    "longitude": "4.3624589"
  },
  {
    "name": "Greenhouse Salon",
    "street_address": "Binckhorstlaan 135",
    "postal_code": "2516BA",
    "locality": "Den Haag",
    "region": "Zuid-Holland",
    "latitude": "52.0675199",
    "longitude": "4.3369215"
  },
  {
    "name": "knip-knap kapsalon",
    "street_address": "Dorpsstraat vo Steenstraat 20",
    "postal_code": "3732HJ",
    "locality": "De Bilt",
    "region": "Utrecht",
    "latitude": "52.1046354",
    "longitude": "5.184465299999999"
  },
  {
    "name": "Kapsalon Liebrechts",
    "street_address": "Markgraaflaan 98",
    "postal_code": "3131VN",
    "locality": "Vlaardingen",
    "region": "Zuid-Holland",
    "latitude": "51.911794",
    "longitude": "4.338733"
  },
  {
    "name": "Kapsalon Irmo",
    "street_address": "Kattenstraat 14",
    "postal_code": "4101BM",
    "locality": "Culemborg",
    "region": "Gelderland",
    "latitude": "51.9583368",
    "longitude": "5.2239412"
  },
  {
    "name": "Hairstyling Marleen de Jong",
    "street_address": "Van Cranenburchlaan 221",
    "postal_code": "2241PM",
    "locality": "Wassenaar",
    "region": "Zuid-Holland",
    "latitude": "52.1514654",
    "longitude": "4.4001211"
  },
  {
    "name": "Kapsalon De Haariaan",
    "street_address": "Rustenburgstraat 27",
    "postal_code": "3297LE",
    "locality": "Puttershoek",
    "region": "Zuid-Holland",
    "latitude": "51.8089692",
    "longitude": "4.5545642"
  },
  {
    "name": "Mandy's Hairtime",
    "street_address": "Enclaveberg 170",
    "postal_code": "4708EC",
    "locality": "Roosendaal",
    "region": "Noord-Brabant",
    "latitude": "51.5150368",
    "longitude": "4.4419738"
  },
  {
    "name": "KATJA'S HOOFDZAAK",
    "street_address": "Hoogstraat 30",
    "postal_code": "4141BC",
    "locality": "Leerdam",
    "region": "Zuid-Holland",
    "latitude": "51.89079599999999",
    "longitude": "5.094841"
  },
  {
    "name": "CoCo Hairstyling",
    "street_address": "Slikkenburg 14",
    "postal_code": "4691TC",
    "locality": "Tholen",
    "region": "Zeeland",
    "latitude": "51.533039",
    "longitude": "4.226979"
  },
  {
    "name": "Condominium",
    "street_address": "Bleiswijkseweg 55",
    "postal_code": "2712PB",
    "locality": "Zoetermeer",
    "region": "Zuid-Holland",
    "latitude": "52.043589",
    "longitude": "4.520211199999999"
  },
  {
    "name": "Moods Hairsalon",
    "street_address": "Molenaarstraat 2 A",
    "postal_code": "2352RD",
    "locality": "Leiderdorp",
    "region": "Zuid-Holland",
    "latitude": "52.159138",
    "longitude": "4.521121"
  },
  {
    "name": "Pieter Smit",
    "street_address": "van Hogendorplaan 31 C",
    "postal_code": "3135BC",
    "locality": "Vlaardingen",
    "region": "Zuid-Holland",
    "latitude": "51.9190915",
    "longitude": "4.357020299999999"
  },
  {
    "name": "Knip Knap Hoogvliet",
    "street_address": "Klaasje Zevensterstraat 126",
    "postal_code": "3193TW",
    "locality": "Hoogvliet Rotterdam",
    "region": "Zuid-Holland",
    "latitude": "51.86743569999999",
    "longitude": "4.3528163"
  },
  {
    "name": "Christa’s Hair at Home",
    "street_address": "Heinemanpad 19",
    "postal_code": "2951DC",
    "locality": "Alblasserdam",
    "region": "Zuid-Holland",
    "latitude": "51.8699448",
    "longitude": "4.662251200000001"
  },
  {
    "name": "Puur-Krul Krullenkapsalon",
    "street_address": "Vianendreef 93",
    "postal_code": "4841LE",
    "locality": "Prinsenbeek",
    "region": "Noord-Brabant",
    "latitude": "51.5974946",
    "longitude": "4.6971647"
  },
  {
    "name": "Herenkapsalon Eric",
    "street_address": "Ketelboetersteeg 29",
    "postal_code": "2311TN",
    "locality": "Leiden",
    "region": "Zuid-Holland",
    "latitude": "52.157155",
    "longitude": "4.4903199"
  },
  {
    "name": "NataNata",
    "street_address": "Lau Mazirellaan 428 B",
    "postal_code": "2525WV",
    "locality": "Den Haag",
    "region": "Zuid-Holland",
    "latitude": "52.05898939999999",
    "longitude": "4.300834399999999"
  },
  {
    "name": "Kapsalon Brevis & Longus",
    "street_address": "Castricumplein 42",
    "postal_code": "2547JA",
    "locality": "Den Haag",
    "region": "Zuid-Holland",
    "latitude": "52.0596405",
    "longitude": "4.264814299999999"
  },
  {
    "name": "With Us",
    "street_address": "Noordwaarts 196",
    "postal_code": "2711HN",
    "locality": "Zoetermeer",
    "region": "Zuid-Holland",
    "latitude": "52.0623729",
    "longitude": "4.4911266"
  },
  {
    "name": "Haarvisie",
    "street_address": "Hendrik Ravesteijnplein 1",
    "postal_code": "2282GS",
    "locality": "Rijswijk",
    "region": "Zuid-Holland",
    "latitude": "52.0492796",
    "longitude": "4.3322508"
  },
  {
    "name": "Haarstudio Bijdorp",
    "street_address": "Bijdorplaan 51",
    "postal_code": "2713RZ",
    "locality": "Zoetermeer",
    "region": "Zuid-Holland",
    "latitude": "52.05688809999999",
    "longitude": "4.4912806"
  },
  {
    "name": "Zoz barber",
    "street_address": "Tortellaan 33",
    "postal_code": "2224HV",
    "locality": "Katwijk aan Zee",
    "region": "Zuid-Holland",
    "latitude": "52.1973493",
    "longitude": "4.4084278"
  },
  {
    "name": "Haarzo",
    "street_address": "Hooftlanden 24",
    "postal_code": "4251BE",
    "locality": "Werkendam",
    "region": "Noord-Brabant",
    "latitude": "51.8093458",
    "longitude": "4.8894161"
  },
  {
    "name": "Trendlounge Abcoude",
    "street_address": "Kerkplein 22",
    "postal_code": "1391GK",
    "locality": "Abcoude",
    "region": "Utrecht",
    "latitude": "52.2723966",
    "longitude": "4.9735965"
  },
  {
    "name": "Martijn van Daalen",
    "street_address": "Hoogte Kadijk 38 HS",
    "postal_code": "1018BM",
    "locality": "Amsterdam",
    "region": "Noord-Holland",
    "latitude": "52.3698689",
    "longitude": "4.9134839"
  },
  {
    "name": "de Bruijn Haarmode",
    "street_address": "Springweg 20",
    "postal_code": "3511VP",
    "locality": "Utrecht",
    "region": "Utrecht",
    "latitude": "52.0886883",
    "longitude": "5.1187458"
  },
  {
    "name": "Hair By Larissa",
    "street_address": "Zilkerduinweg 62",
    "postal_code": "2191AM",
    "locality": "De Zilk",
    "region": "Zuid-Holland",
    "latitude": "52.3008137",
    "longitude": "4.5376153"
  },
  {
    "name": "Kapsalon Marianne Zeist",
    "street_address": "Nijenheim 6109",
    "postal_code": "3704BG",
    "locality": "Zeist",
    "region": "Utrecht",
    "latitude": "52.0869954",
    "longitude": "5.2189771"
  },
  {
    "name": "Silan's Hairhouse",
    "street_address": "van der Marckstraat 10",
    "postal_code": "2274PH",
    "locality": "Voorburg",
    "region": "Zuid-Holland",
    "latitude": "52.0764157",
    "longitude": "4.3442772"
  },
  {
    "name": "HairfashionLizet",
    "street_address": "Marktstraat 21",
    "postal_code": "5171GM",
    "locality": "Kaatsheuvel",
    "region": "Noord-Brabant",
    "latitude": "51.6587904",
    "longitude": "5.0332301"
  },
  {
    "name": "Mariska Taks hair & make-up",
    "street_address": "Toernooiveld 16",
    "postal_code": "4873DK",
    "locality": "Etten-Leur",
    "region": "Noord-Brabant",
    "latitude": "51.5689964",
    "longitude": "4.6543918"
  },
  {
    "name": "JSA Hair Design",
    "street_address": "Laan van Wateringse Veld 189",
    "postal_code": "2548BL",
    "locality": "Den Haag",
    "region": "Zuid-Holland",
    "latitude": "52.0334347",
    "longitude": "4.2841127"
  },
  {
    "name": "fietskapper.nl",
    "street_address": "Engelenburg 25",
    "postal_code": "2036RA",
    "locality": "Haarlem",
    "region": "Noord-Holland",
    "latitude": "52.3526003",
    "longitude": "4.6524516"
  },
  {
    "name": "Danka Haar",
    "street_address": "Odenveltlaan 27",
    "postal_code": "3451ZL",
    "locality": "Utrecht",
    "region": "Utrecht",
    "latitude": "52.1041552",
    "longitude": "5.010135399999999"
  },
  {
    "name": "BARBER DELFT CENTRUM",
    "street_address": "Nieuwstraat 38",
    "postal_code": "2611HK",
    "locality": "Delft",
    "region": "Zuid-Holland",
    "latitude": "52.01154390000001",
    "longitude": "4.3571069"
  },
  {
    "name": "FER Hairstories",
    "street_address": "Sloterweg 91",
    "postal_code": "1171CH",
    "locality": "Badhoevedorp",
    "region": "Noord-Holland",
    "latitude": "52.3396499",
    "longitude": "4.7807394"
  },
  {
    "name": "Hairstyling Good Vibes",
    "street_address": "Vlietstraat 3",
    "postal_code": "3371SX",
    "locality": "Hardinxveld-Giessendam",
    "region": "Zuid-Holland",
    "latitude": "51.8233254",
    "longitude": "4.8272516"
  },
  {
    "name": "Kapsalon FrieStijl",
    "street_address": "Dirk IV-plein 9",
    "postal_code": "4223NJ",
    "locality": "Hoornaar",
    "region": "Zuid-Holland",
    "latitude": "51.878747",
    "longitude": "4.9483358"
  },
  {
    "name": "Thalyta Sousa",
    "street_address": "Rembrandtweg 151",
    "postal_code": "1181GG",
    "locality": "Amstelveen",
    "region": "Noord-Holland",
    "latitude": "52.3056463",
    "longitude": "4.8619732"
  },
  {
    "name": "Top Hair Design",
    "street_address": "Veeteeltstraat 82",
    "postal_code": "1097XA",
    "locality": "Amsterdam",
    "region": "Noord-Holland",
    "latitude": "52.3409557",
    "longitude": "4.9454302"
  },
  {
    "name": "Sandra’s Haircare",
    "street_address": "Laan van Nootdorp 83",
    "postal_code": "2632GS",
    "locality": "Nootdorp",
    "region": "Zuid-Holland",
    "latitude": "52.0458568",
    "longitude": "4.3916148"
  },
  {
    "name": "MOOI HAAR",
    "street_address": "Fellenoordstraat 1",
    "postal_code": "4811TG",
    "locality": "Breda",
    "region": "Noord-Brabant",
    "latitude": "51.5866482",
    "longitude": "4.765915"
  },
  {
    "name": "Haar & Co",
    "street_address": "Berkenakker 13",
    "postal_code": "4855BD",
    "locality": "Galder",
    "region": "Noord-Brabant",
    "latitude": "51.5171568",
    "longitude": "4.7762215"
  },
  {
    "name": "Creations by Nikie",
    "street_address": "Tapperstraat 69",
    "postal_code": "4204TS",
    "locality": "Gorinchem",
    "region": "Zuid-Holland",
    "latitude": "51.8385257",
    "longitude": "4.9481734"
  },
  {
    "name": "Studio Something Scottish",
    "street_address": "Toverberg 25",
    "postal_code": "2716LW",
    "locality": "Zoetermeer",
    "region": "Zuid-Holland",
    "latitude": "52.0596062",
    "longitude": "4.462596"
  },
  {
    "name": "Salon Dani",
    "street_address": "Amsterdamsestraatweg 601",
    "postal_code": "3553EJ",
    "locality": "Utrecht",
    "region": "Utrecht",
    "latitude": "52.1102092",
    "longitude": "5.0839"
  },
  {
    "name": "Helkapper",
    "street_address": "Korte Heinlantstraat 9",
    "postal_code": "3073PB",
    "locality": "Rotterdam",
    "region": "Zuid-Holland",
    "latitude": "51.89162899999999",
    "longitude": "4.5076046"
  },
  {
    "name": "Pure Identity",
    "street_address": "Klapwijkse eilanden 64",
    "postal_code": "2652ET",
    "locality": "Berkel en Rodenrijs",
    "region": "Zuid-Holland",
    "latitude": "51.995496",
    "longitude": "4.458741"
  },
  {
    "name": "HAIR LOVE CARE",
    "street_address": "Nicolaas Beetslaan 146",
    "postal_code": "1422AW",
    "locality": "Uithoorn",
    "region": "Noord-Holland",
    "latitude": "52.2412755",
    "longitude": "4.8267129"
  },
  {
    "name": "Kapsalon Mooi!",
    "street_address": "Siriusstraat 31",
    "postal_code": "1974AA",
    "locality": "IJmuiden",
    "region": "Noord-Holland",
    "latitude": "52.45147",
    "longitude": "4.5944234"
  },
  {
    "name": "@ My Style",
    "street_address": "Beeksestraat 80",
    "postal_code": "4841GD",
    "locality": "Prinsenbeek",
    "region": "Noord-Brabant",
    "latitude": "51.6068669",
    "longitude": "4.7167745"
  },
  {
    "name": "Thuiskapster Elles van der Hoek",
    "street_address": "Petronella Moensstraat 7",
    "postal_code": "4822VG",
    "locality": "Breda",
    "region": "Noord-Brabant",
    "latitude": "51.6101274",
    "longitude": "4.7280637"
  },
  {
    "name": "Kapsalon Lapaz & Lapaz schoonhe..",
    "street_address": "Comeniusstraat 741",
    "postal_code": "1065CE",
    "locality": "Amsterdam",
    "region": "Noord-Holland",
    "latitude": "52.3588533",
    "longitude": "4.823900399999999"
  },
  {
    "name": "Fascino Kappers",
    "street_address": "Hoge Ham 93 A",
    "postal_code": "5104JC",
    "locality": "Dongen",
    "region": "Noord-Brabant",
    "latitude": "51.6280876",
    "longitude": "4.9406249"
  },
  {
    "name": "The Hairroom",
    "street_address": "Molenweg 71",
    "postal_code": "1436BR",
    "locality": "Aalsmeerderbrug",
    "region": "Noord-Holland",
    "latitude": "52.2784129",
    "longitude": "4.7660531"
  },
  {
    "name": "Thuiskapster Manon",
    "street_address": "Aalsmeerderweg 806",
    "postal_code": "1435ET",
    "locality": "Rijsenhout",
    "region": "Noord-Holland",
    "latitude": "52.25935570000001",
    "longitude": "4.7060688"
  },
  {
    "name": "Hairstyling by Alice",
    "street_address": "Oude Molenweg 50",
    "postal_code": "4841BN",
    "locality": "Prinsenbeek",
    "region": "Noord-Brabant",
    "latitude": "51.59140739999999",
    "longitude": "4.713852399999999"
  },
  {
    "name": "De Rotterdamse Zeermeermin",
    "street_address": "Ebbekruid 9",
    "postal_code": "3068RH",
    "locality": "Rotterdam",
    "region": "Zuid-Holland",
    "latitude": "51.958039",
    "longitude": "4.5574479"
  },
  {
    "name": "Haarstudio Joyfull By Joyce",
    "street_address": "Sander 4",
    "postal_code": "4871NA",
    "locality": "Etten-Leur",
    "region": "Noord-Brabant",
    "latitude": "51.5862127",
    "longitude": "4.6321463"
  },
  {
    "name": "HaarZin",
    "street_address": "2e Hogeweg 6",
    "postal_code": "3701AZ",
    "locality": "Zeist",
    "region": "Utrecht",
    "latitude": "52.0843398",
    "longitude": "5.2429575"
  },
  {
    "name": "TEAM Kappers",
    "street_address": "Kerkbuurt 55",
    "postal_code": "3361BC",
    "locality": "Sliedrecht",
    "region": "Zuid-Holland",
    "latitude": "51.8202631",
    "longitude": "4.774003"
  },
  {
    "name": "Vision for beauty",
    "street_address": "van Tolstraat 10",
    "postal_code": "2411BR",
    "locality": "Bodegraven",
    "region": "Zuid-Holland",
    "latitude": "52.08427349999999",
    "longitude": "4.7460965"
  },
  {
    "name": "Samsalon",
    "street_address": "Houttuin 4",
    "postal_code": "2181JG",
    "locality": "Hillegom",
    "region": "Zuid-Holland",
    "latitude": "52.2918163",
    "longitude": "4.5788275"
  },
  {
    "name": "Bijhaar Kapsalon",
    "street_address": "Cotherweg 41",
    "postal_code": "3947MR",
    "locality": "Langbroek",
    "region": "Utrecht",
    "latitude": "52.0088193",
    "longitude": "5.3229003"
  },
  {
    "name": "House of Graces",
    "street_address": "Breestraat 85 B",
    "postal_code": "2311CK",
    "locality": "Leiden",
    "region": "Zuid-Holland",
    "latitude": "52.1587411",
    "longitude": "4.4894504"
  },
  {
    "name": "Budgetkapper Zwijndrecht",
    "street_address": "Buizerdstraat 33",
    "postal_code": "3334SC",
    "locality": "Zwijndrecht",
    "region": "Zuid-Holland",
    "latitude": "51.8142444",
    "longitude": "4.6133985"
  },
  {
    "name": "Chelina's",
    "street_address": "Lijndraaiersteeg 2",
    "postal_code": "4931DP",
    "locality": "Geertruidenberg",
    "region": "Noord-Brabant",
    "latitude": "51.6998311",
    "longitude": "4.8576983"
  },
  {
    "name": "De Kappers Lavida",
    "street_address": "Bevelandsestraat 2",
    "postal_code": "3083NA",
    "locality": "Rotterdam",
    "region": "Zuid-Holland",
    "latitude": "51.8869457",
    "longitude": "4.485045899999999"
  },
  {
    "name": "Kapper Youp",
    "street_address": "Poolseweg 117 A",
    "postal_code": "4818CC",
    "locality": "Breda",
    "region": "Noord-Brabant",
    "latitude": "51.5788492",
    "longitude": "4.7940743"
  },
  {
    "name": "Moknipt",
    "street_address": "Herenstraat 89",
    "postal_code": "2282BS",
    "locality": "Rijswijk",
    "region": "Zuid-Holland",
    "latitude": "52.0553697",
    "longitude": "4.333738299999999"
  },
  {
    "name": "TEAM Kappers",
    "street_address": "Molenstraat 42",
    "postal_code": "2671EZ",
    "locality": "Naaldwijk",
    "region": "Zuid-Holland",
    "latitude": "51.9947621",
    "longitude": "4.207260499999999"
  },
  {
    "name": "Desiree Hairstyling",
    "street_address": "Julianalaan 86",
    "postal_code": "5161BC",
    "locality": "Sprang-Capelle",
    "region": "Noord-Brabant",
    "latitude": "51.67863269999999",
    "longitude": "5.0168476"
  },
  {
    "name": "My Hair",
    "street_address": "Kenbelstraatje 43",
    "postal_code": "4711CC",
    "locality": "Sint Willebrord",
    "region": "Noord-Brabant",
    "latitude": "51.5581132",
    "longitude": "4.5867445"
  },
  {
    "name": "Cindy Haar Salon",
    "street_address": "Heksenkring 30",
    "postal_code": "4823JS",
    "locality": "Breda",
    "region": "Noord-Brabant",
    "latitude": "51.6245607",
    "longitude": "4.7437251"
  },
  {
    "name": "Geknipt by Chantal",
    "street_address": "Lissenvaart 38",
    "postal_code": "2724SJ",
    "locality": "Zoetermeer",
    "region": "Zuid-Holland",
    "latitude": "52.06745489999999",
    "longitude": "4.501418699999999"
  },
  {
    "name": "The Young Hair and Beauty",
    "street_address": "Irenestraat 3",
    "postal_code": "4132EP",
    "locality": "Vianen",
    "region": "Utrecht",
    "latitude": "51.9848238",
    "longitude": "5.0915123"
  },
  {
    "name": "Barbier Rogier Utrecht",
    "street_address": "Vismarkt 21",
    "postal_code": "3511KS",
    "locality": "Utrecht",
    "region": "Utrecht",
    "latitude": "52.09065330000001",
    "longitude": "5.1204781"
  },
  {
    "name": "Hairstyling Igeo",
    "street_address": "Van Oosten de Bruijnstraat 209",
    "postal_code": "2014VR",
    "locality": "Haarlem",
    "region": "Noord-Holland",
    "latitude": "52.3717425",
    "longitude": "4.6181694"
  },
  {
    "name": "DC Hairstyling",
    "street_address": "Sudesstraat 17",
    "postal_code": "2672HW",
    "locality": "Naaldwijk",
    "region": "Zuid-Holland",
    "latitude": "51.985951",
    "longitude": "4.213653"
  },
  {
    "name": "Kapsalon Jasper-Irni",
    "street_address": "Stationsweg 39",
    "postal_code": "3233CS",
    "locality": "Oostvoorne",
    "region": "Zuid-Holland",
    "latitude": "51.91414990000001",
    "longitude": "4.0986888"
  },
  {
    "name": "Schoonheidssalon & kapsalon de..",
    "street_address": "Ratelaar 39 B",
    "postal_code": "3434EW",
    "locality": "Nieuwegein",
    "region": "Utrecht",
    "latitude": "52.0057767",
    "longitude": "5.086007599999999"
  },
  {
    "name": "HAIRiette uw thuis kapster",
    "street_address": "Anne Franklaan 20",
    "postal_code": "2642BK",
    "locality": "Pijnacker",
    "region": "Zuid-Holland",
    "latitude": "52.014558",
    "longitude": "4.448171299999999"
  },
  {
    "name": "Mo Hairstyling",
    "street_address": "Wickenburghselaan 2",
    "postal_code": "3998JW",
    "locality": "Schalkwijk",
    "region": "Utrecht",
    "latitude": "51.9941951",
    "longitude": "5.1863047"
  },
  {
    "name": "Colorlab by Karin",
    "street_address": "Voorstraat 384",
    "postal_code": "3311CX",
    "locality": "Dordrecht",
    "region": "Zuid-Holland",
    "latitude": "51.8134251",
    "longitude": "4.6618947"
  },
  {
    "name": "HaarID By Colinda",
    "street_address": "Dorpsstraat 1",
    "postal_code": "2441CE",
    "locality": "Nieuwveen",
    "region": "Zuid-Holland",
    "latitude": "52.1980519",
    "longitude": "4.756834"
  },
  {
    "name": "Haaratelier Mirjam Taylor",
    "street_address": "Straatweg 105",
    "postal_code": "3621BK",
    "locality": "Breukelen",
    "region": "Utrecht",
    "latitude": "52.1744366",
    "longitude": "5.0016563"
  },
  {
    "name": "Hair by Mandy",
    "street_address": "Dagpauwoog 5",
    "postal_code": "5251GW",
    "locality": "Vlijmen",
    "region": "Noord-Brabant",
    "latitude": "51.7007688",
    "longitude": "5.2027288"
  },
  {
    "name": "Vice Versa uw kapster in de reg..",
    "street_address": "Bernhardstraat 25 , afdeling 1",
    "postal_code": "3281BC",
    "locality": "Numansdorp",
    "region": "Zuid-Holland",
    "latitude": "51.7297755",
    "longitude": "4.4338723"
  },
  {
    "name": "Diana Liefting",
    "street_address": "Polderboom 5",
    "postal_code": "3267BH",
    "locality": "Goudswaard",
    "region": "Zuid-Holland",
    "latitude": "51.7935605",
    "longitude": "4.2812123"
  },
  {
    "name": "N-Joy Kappers",
    "street_address": "Voorstraat 14 a",
    "postal_code": "3286AX",
    "locality": "Klaaswaal",
    "region": "Zuid-Holland",
    "latitude": "51.76858439999999",
    "longitude": "4.4454256"
  },
  {
    "name": "Hairstyling Donna & Guy",
    "street_address": "Nederhoven 11",
    "postal_code": "1083AM",
    "locality": "Amsterdam",
    "region": "Noord-Holland",
    "latitude": "52.32428040000001",
    "longitude": "4.8847276"
  },
  {
    "name": "De Snelle Knipper",
    "street_address": "Voorstraat 47",
    "postal_code": "3401DB",
    "locality": "IJsselstein",
    "region": "Utrecht",
    "latitude": "52.0190086",
    "longitude": "5.0444627"
  },
  {
    "name": "Gökhie's Barbershop",
    "street_address": "Overtoompassage 8",
    "postal_code": "3353HE",
    "locality": "Papendrecht",
    "region": "Zuid-Holland",
    "latitude": "51.8253733",
    "longitude": "4.6853774"
  },
  {
    "name": "Van hot naar hair",
    "street_address": "Herenweg 207 A",
    "postal_code": "3648CE",
    "locality": "Wilnis",
    "region": "Utrecht",
    "latitude": "52.1976598",
    "longitude": "4.8807434"
  },
  {
    "name": "Barbershop Hoeksche Waard",
    "street_address": "Molendijk 5 a",
    "postal_code": "3281LT",
    "locality": "Numansdorp",
    "region": "Zuid-Holland",
    "latitude": "51.72624",
    "longitude": "4.4346271"
  },
  {
    "name": "Desiree",
    "street_address": "Beerze 69",
    "postal_code": "3961HB",
    "locality": "Wijk bij Duurstede",
    "region": "Utrecht",
    "latitude": "51.97406369999999",
    "longitude": "5.3236037"
  },
  {
    "name": "Thuiskapster Bea",
    "street_address": "Van Egmondstraat 17",
    "postal_code": "4143BN",
    "locality": "Leerdam",
    "region": "Utrecht",
    "latitude": "51.9001525",
    "longitude": "5.0926865"
  },
  {
    "name": "Hair & Looks",
    "street_address": "Prins Hendrikstraat 116",
    "postal_code": "4835PS",
    "locality": "Breda",
    "region": "Noord-Brabant",
    "latitude": "51.5719459",
    "longitude": "4.7888128"
  },
  {
    "name": "Magles Lifestyle",
    "street_address": "Hollandse Kade 38 unit 2",
    "postal_code": "1391JM",
    "locality": "Abcoude",
    "region": "Utrecht",
    "latitude": "52.280258",
    "longitude": "4.974791"
  },
  {
    "name": "JS Hairstyling",
    "street_address": "Raadhuisplein 23",
    "postal_code": "2922AE",
    "locality": "Krimpen aan den IJssel",
    "region": "Zuid-Holland",
    "latitude": "51.9149763",
    "longitude": "4.5899206"
  },
  {
    "name": "Kapsalon Anneke",
    "street_address": "Zeestraat 2 A",
    "postal_code": "2211XG",
    "locality": "Noordwijkerhout",
    "region": "Zuid-Holland",
    "latitude": "52.26251",
    "longitude": "4.4922892"
  },
  {
    "name": "Kapsalon Anja",
    "street_address": "Kleine Heistraat 16 - 434",
    "postal_code": "4884ME",
    "locality": "Wernhout",
    "region": "Noord-Brabant",
    "latitude": "51.4335331",
    "longitude": "4.6177839"
  },
  {
    "name": "Scheer & Schaar",
    "street_address": "St. Jorisplein 6",
    "postal_code": "4205JA",
    "locality": "Gorinchem",
    "region": "Zuid-Holland",
    "latitude": "51.83930119999999",
    "longitude": "4.9633784"
  },
  {
    "name": "City Coiffures",
    "street_address": "Prins Hendrikstraat 160",
    "postal_code": "4835PT",
    "locality": "Breda",
    "region": "Noord-Brabant",
    "latitude": "51.5714549",
    "longitude": "4.7897872"
  },
  {
    "name": "herenkapper Peter van Tent",
    "street_address": "Prins Hendriklaan 57",
    "postal_code": "2264ST",
    "locality": "Leidschendam",
    "region": "Zuid-Holland",
    "latitude": "52.0900144",
    "longitude": "4.3962295"
  },
  {
    "name": "Santella BV",
    "street_address": "Vijfhagen 158",
    "postal_code": "4812XT",
    "locality": "Breda",
    "region": "Noord-Brabant",
    "latitude": "51.58256660000001",
    "longitude": "4.7529894"
  },
  {
    "name": "Dames- en Herenkapsalon Carella",
    "street_address": "Theemsweg 57 E",
    "postal_code": "3201LT",
    "locality": "Spijkenisse",
    "region": "Zuid-Holland",
    "latitude": "51.8491406",
    "longitude": "4.3421137"
  },
  {
    "name": "Mooi Haar bij Marije",
    "street_address": "Burgemeester van der Havestraat 75",
    "postal_code": "4307BC",
    "locality": "Oosterland",
    "region": "Zeeland",
    "latitude": "51.6504766",
    "longitude": "4.0388388"
  },
  {
    "name": "Hair by DDM",
    "street_address": "Torenpad 14 A",
    "postal_code": "4872XN",
    "locality": "Etten-Leur",
    "region": "Noord-Brabant",
    "latitude": "51.5694107",
    "longitude": "4.638908"
  },
  {
    "name": "Day and Night Hairdressers West..",
    "street_address": "Westerstraat 123 1",
    "postal_code": "1015LZ",
    "locality": "Amsterdam",
    "region": "Noord-Holland",
    "latitude": "52.3781198",
    "longitude": "4.8828949"
  },
  {
    "name": "Kapsalon Mata-Hari",
    "street_address": "Graadt van Roggenweg 13 A",
    "postal_code": "3531AA",
    "locality": "Utrecht",
    "region": "Utrecht",
    "latitude": "52.08889929999999",
    "longitude": "5.1014251"
  },
  {
    "name": "Dreamweaves",
    "street_address": "Rijnlaan 8",
    "postal_code": "4105GS",
    "locality": "Culemborg",
    "region": "Gelderland",
    "latitude": "51.95360729999999",
    "longitude": "5.2160872"
  },
  {
    "name": "Hair Party",
    "street_address": "van Hogendorpplein 21 a",
    "postal_code": "2805BM",
    "locality": "Gouda",
    "region": "Zuid-Holland",
    "latitude": "52.0212329",
    "longitude": "4.7094521"
  },
  {
    "name": "Kapsalon Cocopelo",
    "street_address": "Korte Koestraat 1",
    "postal_code": "3511RP",
    "locality": "Utrecht",
    "region": "Utrecht",
    "latitude": "52.0931353",
    "longitude": "5.1123275"
  },
  {
    "name": "Kapsalon Mon Rêve",
    "street_address": "Reeweg Oost 26",
    "postal_code": "3312CR",
    "locality": "Dordrecht",
    "region": "Zuid-Holland",
    "latitude": "51.8088043",
    "longitude": "4.6800355"
  },
  {
    "name": "Jolanda’s Hairstyling",
    "street_address": "Reeweg 37 A",
    "postal_code": "3342AA",
    "locality": "Hendrik-Ido-Ambacht",
    "region": "Zuid-Holland",
    "latitude": "51.84729799999999",
    "longitude": "4.6316542"
  },
  {
    "name": "hairstyling Corine",
    "street_address": "Oud Kerkpad 42",
    "postal_code": "4721SC",
    "locality": "Schijf",
    "region": "Noord-Brabant",
    "latitude": "51.5087561",
    "longitude": "4.5609497"
  },
  {
    "name": "HaarKlip",
    "street_address": "Breede Kampen 56",
    "postal_code": "4171AV",
    "locality": "Herwijnen",
    "region": "Gelderland",
    "latitude": "51.8246344",
    "longitude": "5.1320543"
  },
  {
    "name": "Hanneke's Hairfashion",
    "street_address": "Braggert 6",
    "postal_code": "3252CM",
    "locality": "Goedereede",
    "region": "Zuid-Holland",
    "latitude": "51.8199029",
    "longitude": "3.9862399"
  },
  {
    "name": "2gether",
    "street_address": "Paul Krugerstraat 35",
    "postal_code": "2225ZJ",
    "locality": "Katwijk aan Zee",
    "region": "Zuid-Holland",
    "latitude": "52.2070802",
    "longitude": "4.3993626"
  },
  {
    "name": "Studio Colourful",
    "street_address": "Admiraal De Ruijterweg 333 3",
    "postal_code": "1055LZ",
    "locality": "Amsterdam",
    "region": "Noord-Holland",
    "latitude": "52.3808677",
    "longitude": "4.853977899999999"
  },
  {
    "name": "X-cellent Hairstyling",
    "street_address": "Antonius Matthaeuslaan 83",
    "postal_code": "3515AP",
    "locality": "Utrecht",
    "region": "Utrecht",
    "latitude": "52.1047463",
    "longitude": "5.121087000000001"
  },
  {
    "name": "TEAM Kappers",
    "street_address": "Marktplein 10 c",
    "postal_code": "2691BV",
    "locality": "'s-Gravenzande",
    "region": "Zuid-Holland",
    "latitude": "52.00285479999999",
    "longitude": "4.1625467"
  },
  {
    "name": "Trendy barbershop",
    "street_address": "Voorstraat 25",
    "postal_code": "3311EM",
    "locality": "Dordrecht",
    "region": "Zuid-Holland",
    "latitude": "51.8191111",
    "longitude": "4.6720852"
  },
  {
    "name": "H&S",
    "street_address": "Nassaustraat 42",
    "postal_code": "2131XS",
    "locality": "Hoofddorp",
    "region": "Noord-Holland",
    "latitude": "52.3104964",
    "longitude": "4.6873154"
  },
  {
    "name": "Avenue Kappers!",
    "street_address": "Tuinweg 26 A",
    "postal_code": "2132DP",
    "locality": "Hoofddorp",
    "region": "Noord-Holland",
    "latitude": "52.3034598",
    "longitude": "4.6920094"
  },
  {
    "name": "Kapsalon Sezen",
    "street_address": "Schalk Burgerstraat 184",
    "postal_code": "2572VD",
    "locality": "Den Haag",
    "region": "Zuid-Holland",
    "latitude": "52.06324619999999",
    "longitude": "4.2936143"
  },
  {
    "name": "Joan Althof",
    "street_address": "Klooster Leuterstraat 22 b",
    "postal_code": "3961AZ",
    "locality": "Wijk bij Duurstede",
    "region": "Utrecht",
    "latitude": "51.9724831",
    "longitude": "5.3468909"
  },
  {
    "name": "Kapsalon Hair & Looks",
    "street_address": "Heuveleind 4",
    "postal_code": "4901LL",
    "locality": "Oosterhout",
    "region": "Noord-Brabant",
    "latitude": "51.6431968",
    "longitude": "4.8555284"
  },
  {
    "name": "Monikahaarbedrijf",
    "street_address": "Stationsplein 120",
    "postal_code": "2405BM",
    "locality": "Alphen aan den Rijn",
    "region": "Zuid-Holland",
    "latitude": "52.123901",
    "longitude": "4.6588014"
  },
  {
    "name": "Hairstudio Jessica",
    "street_address": "Rendementsweg 27",
    "postal_code": "3641SK",
    "locality": "Mijdrecht",
    "region": "Utrecht",
    "latitude": "52.2091255",
    "longitude": "4.884451599999999"
  },
  {
    "name": "Studio Z",
    "street_address": "Admiraal De Ruijterweg 80 hs",
    "postal_code": "1056GN",
    "locality": "Amsterdam",
    "region": "Noord-Holland",
    "latitude": "52.3716334",
    "longitude": "4.860265699999999"
  },
  {
    "name": "Hairblitz",
    "street_address": "Brink 50",
    "postal_code": "1188ND",
    "locality": "Amstelveen",
    "region": "Noord-Holland",
    "latitude": "52.28136730000001",
    "longitude": "4.8521052"
  },
  {
    "name": "Puur Geknipt",
    "street_address": "Voorstraat 434",
    "postal_code": "3311CX",
    "locality": "Dordrecht",
    "region": "Zuid-Holland",
    "latitude": "51.8136252",
    "longitude": "4.659932299999999"
  },
  {
    "name": "Haar Kapperie",
    "street_address": "Karekietstraat 12",
    "postal_code": "4209BP",
    "locality": "Schelluinen",
    "region": "Zuid-Holland",
    "latitude": "51.845947",
    "longitude": "4.921168"
  },
  {
    "name": "Haartalenten Dames en Heren Kap..",
    "street_address": "Helmstraat 55 C",
    "postal_code": "3641EV",
    "locality": "Mijdrecht",
    "region": "Utrecht",
    "latitude": "52.2088712",
    "longitude": "4.8670389"
  },
  {
    "name": "Kapsalon Mijn Schaar",
    "street_address": "Oude Leedeweg 209",
    "postal_code": "2641SG",
    "locality": "Pijnacker",
    "region": "Zuid-Holland",
    "latitude": "51.9840662",
    "longitude": "4.413418699999999"
  },
  {
    "name": "Laurie's Knipsalon",
    "street_address": "Jhr Mr A F de Savornin Lohmanstraat 64",
    "postal_code": "3214XB",
    "locality": "Zuidland",
    "region": "Zuid-Holland",
    "latitude": "51.8193189",
    "longitude": "4.264654000000001"
  },
  {
    "name": "Pura salon",
    "street_address": "Vromade 9",
    "postal_code": "2408JZ",
    "locality": "Bodegraven",
    "region": "Zuid-Holland",
    "latitude": "52.07685129999999",
    "longitude": "4.7510882"
  },
  {
    "name": "Haarmode Pico Bello",
    "street_address": "Boulevard 68 A",
    "postal_code": "4701EW",
    "locality": "Roosendaal",
    "region": "Noord-Brabant",
    "latitude": "51.534633",
    "longitude": "4.4661791"
  },
  {
    "name": "Haarwerkservice Hoeksche Waard",
    "street_address": "Achterstraat 28",
    "postal_code": "3264AB",
    "locality": "Nieuw-Beijerland",
    "region": "Zuid-Holland",
    "latitude": "51.8112673",
    "longitude": "4.338786199999999"
  },
  {
    "name": "Dana",
    "street_address": "Lindestraat 15",
    "postal_code": "4731CL",
    "locality": "Oudenbosch",
    "region": "Noord-Brabant",
    "latitude": "51.5888759",
    "longitude": "4.5406622"
  },
  {
    "name": "Due Donne Hair",
    "street_address": "Hueseplein 9",
    "postal_code": "1185HH",
    "locality": "Amstelveen",
    "region": "Noord-Holland",
    "latitude": "52.29670170000001",
    "longitude": "4.855017000000001"
  },
  {
    "name": "Marian Hairstyling Thuisservice",
    "street_address": "Sperwerhorst 2",
    "postal_code": "2675WT",
    "locality": "Honselersdijk",
    "region": "Zuid-Holland",
    "latitude": "52.0037551",
    "longitude": "4.2312155"
  },
  {
    "name": "Barber Juul",
    "street_address": "Adriaan van Bergenstraat 220",
    "postal_code": "4811SW",
    "locality": "Breda",
    "region": "Noord-Brabant",
    "latitude": "51.5905068",
    "longitude": "4.7708395"
  },
  {
    "name": "Kapsalon De Kop van Warmond",
    "street_address": "Herenweg 86 b",
    "postal_code": "2361EV",
    "locality": "Warmond",
    "region": "Zuid-Holland",
    "latitude": "52.2027616",
    "longitude": "4.5056148"
  },
  {
    "name": "All (a)round Hairstyling",
    "street_address": "Spletting 33",
    "postal_code": "4871JE",
    "locality": "Etten-Leur",
    "region": "Noord-Brabant",
    "latitude": "51.5930129",
    "longitude": "4.6542335"
  },
  {
    "name": "D-Re-Style",
    "street_address": "Jeroen Boschstraat 64",
    "postal_code": "5121WZ",
    "locality": "Rijen",
    "region": "Noord-Brabant",
    "latitude": "51.5859999",
    "longitude": "4.9200197"
  },
  {
    "name": "Hairstyling Magic Hands",
    "street_address": "Voorheuvel 8 A",
    "postal_code": "3701JE",
    "locality": "Zeist",
    "region": "Utrecht",
    "latitude": "52.0865829",
    "longitude": "5.239828000000001"
  },
  {
    "name": "linda rooy",
    "street_address": "Tomatenlaan 17 D",
    "postal_code": "2548AJ",
    "locality": "Den Haag",
    "region": "Zuid-Holland",
    "latitude": "52.0354324",
    "longitude": "4.2885219"
  },
  {
    "name": "Jesicabeauty",
    "street_address": "Clusiushof 7 A",
    "postal_code": "2341PT",
    "locality": "Oegstgeest",
    "region": "Zuid-Holland",
    "latitude": "52.1798473",
    "longitude": "4.4946934"
  },
  {
    "name": "Dames- en heren kapsalon AJ",
    "street_address": "Boergoensestraat 39 B",
    "postal_code": "3082KB",
    "locality": "Rotterdam",
    "region": "Zuid-Holland",
    "latitude": "51.8912547",
    "longitude": "4.469566299999999"
  },
  {
    "name": "Eindeloos Hairstyling",
    "street_address": "Hyacinthenstraat 29",
    "postal_code": "2071PR",
    "locality": "Santpoort-Noord",
    "region": "Noord-Holland",
    "latitude": "52.4340124",
    "longitude": "4.6421196"
  },
  {
    "name": "De knipkamer",
    "street_address": "Coudenhoveflat 21",
    "postal_code": "1422VG",
    "locality": "Uithoorn",
    "region": "Noord-Holland",
    "latitude": "52.2497431",
    "longitude": "4.831305299999999"
  },
  {
    "name": "Hannie van Rijnsbergen",
    "street_address": "Hoogveldweg 9",
    "postal_code": "5315AG",
    "locality": "Kerkwijk",
    "region": "Gelderland",
    "latitude": "51.7778438",
    "longitude": "5.2247521"
  },
  {
    "name": "MartinHair - de kapper- Den Haa..",
    "street_address": "Fahrenheitstraat 635",
    "postal_code": "2561DC",
    "locality": "Den Haag",
    "region": "Zuid-Holland",
    "latitude": "52.0787529",
    "longitude": "4.269516299999999"
  },
  {
    "name": "Haarstyliste Tatiana",
    "street_address": "Willem van der Zaandreef 23",
    "postal_code": "2253VE",
    "locality": "Voorschoten",
    "region": "Zuid-Holland",
    "latitude": "52.1421948",
    "longitude": "4.4640126"
  }
]