[
  {
    "name": "Corina's Hair and Nailtime",
    "street_address": "Akerstraat Noord 27",
    "postal_code": "6446XB",
    "locality": "Brunssum",
    "region": "Limburg",
    "latitude": "50.9331702",
    "longitude": "5.931855"
  },
  {
    "name": "Kapsalon Hipp",
    "street_address": "Julianastraat 1",
    "postal_code": "5864AN",
    "locality": "Meerlo",
    "region": "Limburg",
    "latitude": "51.5141622",
    "longitude": "6.0847383"
  },
  {
    "name": "Karin's hair@home",
    "street_address": "Klingerbergsingel 173",
    "postal_code": "5925AH",
    "locality": "Venlo",
    "region": "Limburg",
    "latitude": "51.3784717",
    "longitude": "6.1273488"
  },
  {
    "name": "M & M Hairstyling",
    "street_address": "Rector Meuffelsstraat 6",
    "postal_code": "6114CN",
    "locality": "Susteren",
    "region": "Limburg",
    "latitude": "51.0661029",
    "longitude": "5.8629647"
  },
  {
    "name": "Dameskapsalon Van den Akker",
    "street_address": "Korte Molenstraat 18 A",
    "postal_code": "5431DT",
    "locality": "Cuijk",
    "region": "Noord-Brabant",
    "latitude": "51.7289822",
    "longitude": "5.880395999999999"
  },
  {
    "name": "Herensalon Sandra",
    "street_address": "Polstraat 12",
    "postal_code": "6019BL",
    "locality": "Wessem",
    "region": "Limburg",
    "latitude": "51.1620412",
    "longitude": "5.8869843"
  },
  {
    "name": "Kapsalon Schrijen",
    "street_address": "Steenstraat 82",
    "postal_code": "5831JH",
    "locality": "Boxmeer",
    "region": "Noord-Brabant",
    "latitude": "51.6473441",
    "longitude": "5.9507821"
  },
  {
    "name": "Jessie Total Hair Care",
    "street_address": "Lange Akker 13",
    "postal_code": "5825GA",
    "locality": "Overloon",
    "region": "Noord-Brabant",
    "latitude": "51.5742986",
    "longitude": "5.942012699999999"
  },
  {
    "name": "Dam.- & Herenkaps. Angeline Ker..",
    "street_address": "Dorpsstraat 171",
    "postal_code": "6456AC",
    "locality": "Bingelrade",
    "region": "Limburg",
    "latitude": "50.9680924",
    "longitude": "5.942656599999999"
  },
  {
    "name": "Kapsalon Mojgan",
    "street_address": "Brusselsestraat 122",
    "postal_code": "6211PH",
    "locality": "Maastricht",
    "region": "Limburg",
    "latitude": "50.84971729999999",
    "longitude": "5.680581"
  },
  {
    "name": "Hair4All",
    "street_address": "Akerstraat Noord 296",
    "postal_code": "6431HW",
    "locality": "Hoensbroek",
    "region": "Limburg",
    "latitude": "50.9260613",
    "longitude": "5.942546999999999"
  },
  {
    "name": "Kapsalon Marie-Louise",
    "street_address": "Beukenhoven 50",
    "postal_code": "6225GR",
    "locality": "Maastricht",
    "region": "Limburg",
    "latitude": "50.8639033",
    "longitude": "5.7329846"
  },
  {
    "name": "Mooi by Haar",
    "street_address": "Lindenlaan 4",
    "postal_code": "5854AM",
    "locality": "Bergen",
    "region": "Limburg",
    "latitude": "51.603683",
    "longitude": "6.0470128"
  },
  {
    "name": "Nenc",
    "street_address": "Kaldenkerkerweg 45",
    "postal_code": "5913AC",
    "locality": "Venlo",
    "region": "Limburg",
    "latitude": "51.36228730000001",
    "longitude": "6.1759348"
  },
  {
    "name": "Kapsalon Stip",
    "street_address": "Nieuwstraat 1",
    "postal_code": "5441AP",
    "locality": "Oeffelt",
    "region": "Noord-Brabant",
    "latitude": "51.6977778",
    "longitude": "5.936048899999999"
  },
  {
    "name": "Kapsalon Ans",
    "street_address": "Onze Lieve Vrouwestraat 67 A",
    "postal_code": "6035AN",
    "locality": "Ospel",
    "region": "Limburg",
    "latitude": "51.2984819",
    "longitude": "5.7844833"
  },
  {
    "name": "Heren- en Kinderkapsalon Hee Ba..",
    "street_address": "Kerkstraat 70",
    "postal_code": "6137SP",
    "locality": "Sittard",
    "region": "Limburg",
    "latitude": "51.0033341",
    "longitude": "5.890425599999999"
  },
  {
    "name": "Square Kappers",
    "street_address": "Kerkstraat 13",
    "postal_code": "5931NL",
    "locality": "Tegelen",
    "region": "Limburg",
    "latitude": "51.34258939999999",
    "longitude": "6.1382781"
  },
  {
    "name": "Eureka Atlino's",
    "street_address": "Cellostraat 1",
    "postal_code": "5802KA",
    "locality": "Venray",
    "region": "Limburg",
    "latitude": "51.5204192",
    "longitude": "5.996236400000001"
  },
  {
    "name": "Hairlevel",
    "street_address": "Haagstraat 41",
    "postal_code": "6133VR",
    "locality": "Sittard",
    "region": "Limburg",
    "latitude": "50.9891871",
    "longitude": "5.853526400000001"
  },
  {
    "name": "Hair Team U2",
    "street_address": "Kruisstraat 67",
    "postal_code": "6461HA",
    "locality": "Kerkrade",
    "region": "Limburg",
    "latitude": "50.8613575",
    "longitude": "6.0688961"
  },
  {
    "name": "Wilke's Hairshop",
    "street_address": "Churchilllaan 19",
    "postal_code": "6226CS",
    "locality": "Maastricht",
    "region": "Limburg",
    "latitude": "50.846638",
    "longitude": "5.7252291"
  },
  {
    "name": "Ambulant kapster Nicole",
    "street_address": "Laurentiusstraat 96",
    "postal_code": "5921GM",
    "locality": "Venlo",
    "region": "Limburg",
    "latitude": "51.3661819",
    "longitude": "6.14957"
  },
  {
    "name": "Kapsalon Miriam",
    "street_address": "Jacobusstraat 44",
    "postal_code": "6351LC",
    "locality": "Bocholtz",
    "region": "Limburg",
    "latitude": "50.8200557",
    "longitude": "6.000808"
  },
  {
    "name": "Kresit",
    "street_address": "Langstraat 22 A",
    "postal_code": "6001CV",
    "locality": "Weert",
    "region": "Limburg",
    "latitude": "51.2520801",
    "longitude": "5.7061308"
  },
  {
    "name": "De Soigneur",
    "street_address": "Burgemeester van Oppenstraat 107",
    "postal_code": "6224ER",
    "locality": "Maastricht",
    "region": "Limburg",
    "latitude": "50.8532824",
    "longitude": "5.7127653"
  },
  {
    "name": "All Kinds of Hair",
    "street_address": "Pastoor Vranckenlaan 66",
    "postal_code": "5953CR",
    "locality": "Reuver",
    "region": "Limburg",
    "latitude": "51.2821674",
    "longitude": "6.073623599999999"
  },
  {
    "name": "Hairstyliste Jozefien",
    "street_address": "Leenherenstraat 13",
    "postal_code": "6585VA",
    "locality": "Mook",
    "region": "Limburg",
    "latitude": "51.7552409",
    "longitude": "5.877540199999999"
  },
  {
    "name": "Kapsalon-Gerty",
    "street_address": "Burgemeester Cremersstraat 62",
    "postal_code": "5971VZ",
    "locality": "Grubbenvorst",
    "region": "Limburg",
    "latitude": "51.4188339",
    "longitude": "6.1411443"
  },
  {
    "name": "Kapsalon Anja & Loek",
    "street_address": "Hoofdstraat 8 a",
    "postal_code": "5961EZ",
    "locality": "Horst",
    "region": "Limburg",
    "latitude": "51.4517373",
    "longitude": "6.0550082"
  },
  {
    "name": "Dames- en Herenkappersbedrijf W..",
    "street_address": "Hobbelrade 41",
    "postal_code": "6176CG",
    "locality": "Spaubeek",
    "region": "Limburg",
    "latitude": "50.9417068",
    "longitude": "5.837866399999999"
  },
  {
    "name": "Kapsalon de King",
    "street_address": "Julianasingel 33 B",
    "postal_code": "5802AT",
    "locality": "Venray",
    "region": "Limburg",
    "latitude": "51.52421",
    "longitude": "5.9774827"
  },
  {
    "name": "Nuance hairstyling",
    "street_address": "Jachthoornstraat 37",
    "postal_code": "6219BM",
    "locality": "Maastricht",
    "region": "Limburg",
    "latitude": "50.8651984",
    "longitude": "5.690110499999999"
  },
  {
    "name": "Wim's Huid en Haarsalon",
    "street_address": "Terbaansweg 44",
    "postal_code": "6044VX",
    "locality": "Roermond",
    "region": "Limburg",
    "latitude": "51.1815802",
    "longitude": "6.0100409"
  },
  {
    "name": "Hair on Wheels",
    "street_address": "Stegen 13",
    "postal_code": "6191TR",
    "locality": "Beek",
    "region": "Limburg",
    "latitude": "50.9391924",
    "longitude": "5.8010942"
  },
  {
    "name": "John's Hairshops",
    "street_address": "Kloosterstraat 37",
    "postal_code": "5921HB",
    "locality": "Venlo",
    "region": "Limburg",
    "latitude": "51.3667817",
    "longitude": "6.151672"
  },
  {
    "name": "Kapsalon Hair & Body Care",
    "street_address": "Hellebroek 61",
    "postal_code": "6361AB",
    "locality": "Nuth",
    "region": "Limburg",
    "latitude": "50.9126463",
    "longitude": "5.8962207"
  },
  {
    "name": "Zautsen-Romans",
    "street_address": "Klimmenderstraat 38-40",
    "postal_code": "6343AC",
    "locality": "Klimmen",
    "region": "Limburg",
    "latitude": "50.87787369999999",
    "longitude": "5.8833519"
  },
  {
    "name": "Kapsalon Natasja",
    "street_address": "Limburglaan 92",
    "postal_code": "6004HE",
    "locality": "Weert",
    "region": "Limburg",
    "latitude": "51.2525111",
    "longitude": "5.7199176"
  },
  {
    "name": "F'Acère Hairs Visagie",
    "street_address": "Kabroekstraat 1",
    "postal_code": "5966NW",
    "locality": "America",
    "region": "Limburg",
    "latitude": "51.4372845",
    "longitude": "5.9817643"
  },
  {
    "name": "Kopzorg",
    "street_address": "Rechtstraat 91",
    "postal_code": "6221EH",
    "locality": "Maastricht",
    "region": "Limburg",
    "latitude": "50.8476674",
    "longitude": "5.6985996"
  },
  {
    "name": "Hair Fashion MP",
    "street_address": "Raadhuisstraat 2",
    "postal_code": "6042JL",
    "locality": "Roermond",
    "region": "Limburg",
    "latitude": "51.1992297",
    "longitude": "6.012510300000001"
  },
  {
    "name": "Rino",
    "street_address": "Grotestraat 60",
    "postal_code": "5931CW",
    "locality": "Tegelen",
    "region": "Limburg",
    "latitude": "51.3434714",
    "longitude": "6.1367281"
  },
  {
    "name": "Zijlstra Dames- en Herenkapsalo..",
    "street_address": "Lindenlaan 14",
    "postal_code": "6301HB",
    "locality": "Valkenburg",
    "region": "Limburg",
    "latitude": "50.8660784",
    "longitude": "5.8321303"
  },
  {
    "name": "Barber@Home",
    "street_address": "Napoleonsbaan Zuid 30 b",
    "postal_code": "5991ND",
    "locality": "Baarlo",
    "region": "Limburg",
    "latitude": "51.324766",
    "longitude": "6.0815015"
  },
  {
    "name": "Kapperscorner",
    "street_address": "De Donckstraat 16",
    "postal_code": "5975AC",
    "locality": "Sevenum",
    "region": "Limburg",
    "latitude": "51.4138519",
    "longitude": "6.033739100000001"
  },
  {
    "name": "Susan's Hairstyling",
    "street_address": "Lindendriesstraat 38",
    "postal_code": "6171PZ",
    "locality": "Stein",
    "region": "Limburg",
    "latitude": "50.9653341",
    "longitude": "5.7437489"
  },
  {
    "name": "F. Förster",
    "street_address": "Laurentiusplein 2",
    "postal_code": "6367VL",
    "locality": "Voerendaal",
    "region": "Limburg",
    "latitude": "50.8828763",
    "longitude": "5.9237723"
  },
  {
    "name": "Haarmode Theo",
    "street_address": "Sint Janstraat 26",
    "postal_code": "6595AC",
    "locality": "Ottersum",
    "region": "Limburg",
    "latitude": "51.7022211",
    "longitude": "5.983248499999999"
  },
  {
    "name": "BrainWash Geleen",
    "street_address": "Ansemburgstraat 6",
    "postal_code": "6161EV",
    "locality": "Geleen",
    "region": "Limburg",
    "latitude": "50.9698189",
    "longitude": "5.828873499999999"
  },
  {
    "name": "Herenkapsalon L. Kessels",
    "street_address": "Past v B Batenburgln 57",
    "postal_code": "5986CB",
    "locality": "Beringe",
    "region": "Limburg",
    "latitude": "51.3348207",
    "longitude": "5.952619800000001"
  },
  {
    "name": "Thuiskapster Linda Lenssen",
    "street_address": "Jan van Swolgenstraat 3",
    "postal_code": "5866AS",
    "locality": "Swolgen",
    "region": "Limburg",
    "latitude": "51.49184529999999",
    "longitude": "6.1223964"
  },
  {
    "name": "Kinderkapsalon Kiddo's",
    "street_address": "Pater Hubertuscour 13",
    "postal_code": "6166ZA",
    "locality": "Geleen",
    "region": "Limburg",
    "latitude": "50.9707719",
    "longitude": "5.834534"
  },
  {
    "name": "Kapsalon La Balance",
    "street_address": "Pr. Christinastraat 26",
    "postal_code": "6271CA",
    "locality": "Gulpen",
    "region": "Limburg",
    "latitude": "50.8171153",
    "longitude": "5.887254"
  },
  {
    "name": "Herenkapsalon Polly",
    "street_address": "Esdoornstraat 16",
    "postal_code": "6031VK",
    "locality": "Nederweert",
    "region": "Limburg",
    "latitude": "51.2829675",
    "longitude": "5.745634"
  },
  {
    "name": "Kapsalon Wilma",
    "street_address": "Prins Willem-Alexanderlaan 103",
    "postal_code": "6301TT",
    "locality": "Valkenburg",
    "region": "Limburg",
    "latitude": "50.8705887",
    "longitude": "5.8208658"
  },
  {
    "name": "Total Look",
    "street_address": "Wilhelminaplein 4 A",
    "postal_code": "6411KV",
    "locality": "Heerlen",
    "region": "Limburg",
    "latitude": "50.8886579",
    "longitude": "5.9804714"
  },
  {
    "name": "Kapsalon Ruda",
    "street_address": "Sint Gertrudisstraat 28",
    "postal_code": "6051BT",
    "locality": "Maasbracht",
    "region": "Limburg",
    "latitude": "51.14510929999999",
    "longitude": "5.887948"
  },
  {
    "name": "Hautcoiffure Simon",
    "street_address": "Emmastraat 6",
    "postal_code": "6373HM",
    "locality": "Landgraaf",
    "region": "Limburg",
    "latitude": "50.9102658",
    "longitude": "6.0332931"
  },
  {
    "name": "Barbel Modekappers Heerlen",
    "street_address": "Heerlerbaan 162",
    "postal_code": "6418CK",
    "locality": "Heerlen",
    "region": "Limburg",
    "latitude": "50.8667284",
    "longitude": "6.000460500000001"
  },
  {
    "name": "Kapsalon Nouveau Art",
    "street_address": "Helenaveenseweg 6",
    "postal_code": "5985NM",
    "locality": "Grashoek",
    "region": "Limburg",
    "latitude": "51.3626689",
    "longitude": "5.9393815"
  },
  {
    "name": "Kapsalon Therése",
    "street_address": "Heierveldlaan 3",
    "postal_code": "5993GD",
    "locality": "Maasbree",
    "region": "Limburg",
    "latitude": "51.3578296",
    "longitude": "6.0455369"
  },
  {
    "name": "Hairstyling Lemmerling",
    "street_address": "Korte Maar 9",
    "postal_code": "6467EX",
    "locality": "Kerkrade",
    "region": "Limburg",
    "latitude": "50.8661012",
    "longitude": "6.0214686"
  },
  {
    "name": "Mondian",
    "street_address": "Van Nijvenheimstraat 54",
    "postal_code": "5912BN",
    "locality": "Venlo",
    "region": "Limburg",
    "latitude": "51.3608548",
    "longitude": "6.162135399999999"
  },
  {
    "name": "Ilo Hair",
    "street_address": "Oude Tunnelweg 2 B",
    "postal_code": "6467EM",
    "locality": "Kerkrade",
    "region": "Limburg",
    "latitude": "50.8671634",
    "longitude": "6.024742199999999"
  },
  {
    "name": "Schettering Hair & Beauty Maast..",
    "street_address": "Meerssenerweg 273 a",
    "postal_code": "6224AH",
    "locality": "Maastricht",
    "region": "Limburg",
    "latitude": "50.8517609",
    "longitude": "5.7065228"
  },
  {
    "name": "The Barbershop Est. 1996",
    "street_address": "Nieuwstraat 10",
    "postal_code": "5911JT",
    "locality": "Venlo",
    "region": "Limburg",
    "latitude": "51.3685874",
    "longitude": "6.169452100000001"
  },
  {
    "name": "Haarstudio Danju",
    "street_address": "Baneheiderweg 19",
    "postal_code": "6351JP",
    "locality": "Bocholtz",
    "region": "Limburg",
    "latitude": "50.8166373",
    "longitude": "5.9893404"
  },
  {
    "name": "Kapsalon Meulensteen",
    "street_address": "Braamsluiper 6",
    "postal_code": "5831PW",
    "locality": "Boxmeer",
    "region": "Noord-Brabant",
    "latitude": "51.6417316",
    "longitude": "5.9570833"
  },
  {
    "name": "Jacqueline Thuiskapsalon",
    "street_address": "Esdoornstraat 34",
    "postal_code": "6374XM",
    "locality": "Landgraaf",
    "region": "Limburg",
    "latitude": "50.91105229999999",
    "longitude": "6.0441275"
  },
  {
    "name": "Haircode",
    "street_address": "Rosmolenstraat 24 B",
    "postal_code": "6131HX",
    "locality": "Sittard",
    "region": "Limburg",
    "latitude": "50.9966041",
    "longitude": "5.8695236"
  },
  {
    "name": "Sizoo Haarmode",
    "street_address": "Brugstraat 15",
    "postal_code": "6041EP",
    "locality": "Roermond",
    "region": "Limburg",
    "latitude": "51.1945231",
    "longitude": "5.984613"
  },
  {
    "name": "Hairstudio Essenziale",
    "street_address": "Merseloseweg 76 A",
    "postal_code": "5801CE",
    "locality": "Venray",
    "region": "Limburg",
    "latitude": "51.5257058",
    "longitude": "5.971392199999999"
  },
  {
    "name": "BieZee",
    "street_address": "Meeuwenlaan 35",
    "postal_code": "6165SV",
    "locality": "Geleen",
    "region": "Limburg",
    "latitude": "50.9622636",
    "longitude": "5.8310924"
  },
  {
    "name": "Hair en Nail Design Lilian",
    "street_address": "Vloedgraaf 1",
    "postal_code": "6151DG",
    "locality": "Munstergeleen",
    "region": "Limburg",
    "latitude": "50.9767818",
    "longitude": "5.871199"
  },
  {
    "name": "Haarstudio Enrico",
    "street_address": "Stationsstraat 1 A",
    "postal_code": "6093BJ",
    "locality": "Heythuysen",
    "region": "Limburg",
    "latitude": "51.2495507",
    "longitude": "5.8943604"
  },
  {
    "name": "'t Scheepje",
    "street_address": "Monseigneur Geurtsstraat 74",
    "postal_code": "5823AG",
    "locality": "Maashees",
    "region": "Noord-Brabant",
    "latitude": "51.5680803",
    "longitude": "6.0358917"
  },
  {
    "name": "E & M Haarmode",
    "street_address": "Overhoven 87",
    "postal_code": "6136EC",
    "locality": "Sittard",
    "region": "Limburg",
    "latitude": "51.0062133",
    "longitude": "5.8686156"
  },
  {
    "name": "Haarstudio Guillaume",
    "street_address": "Ganzeweide 68",
    "postal_code": "6413GH",
    "locality": "Heerlen",
    "region": "Limburg",
    "latitude": "50.9154322",
    "longitude": "5.9541461"
  },
  {
    "name": "Marga's Haircare",
    "street_address": "Humcovenderveld 37",
    "postal_code": "6231HX",
    "locality": "Meerssen",
    "region": "Limburg",
    "latitude": "50.8912427",
    "longitude": "5.7568639"
  },
  {
    "name": "Haarmode Claro",
    "street_address": "Singelweg 6",
    "postal_code": "6467CG",
    "locality": "Kerkrade",
    "region": "Limburg",
    "latitude": "50.8663967",
    "longitude": "6.0252146"
  },
  {
    "name": "De kapsaloon",
    "street_address": "Swalmzicht 33",
    "postal_code": "6071HL",
    "locality": "Swalmen",
    "region": "Limburg",
    "latitude": "51.2316194",
    "longitude": "6.0431933"
  },
  {
    "name": "Herenkapper Driss",
    "street_address": "Zandstraat 36",
    "postal_code": "6591DD",
    "locality": "Gennep",
    "region": "Limburg",
    "latitude": "51.7002546",
    "longitude": "5.9703626"
  },
  {
    "name": "Ambulant Kapster Annet",
    "street_address": "Riethorsterweg 10",
    "postal_code": "6586AC",
    "locality": "Plasmolen",
    "region": "Limburg",
    "latitude": "51.7378013",
    "longitude": "5.917164199999999"
  },
  {
    "name": "Hairstyling Mirjam",
    "street_address": "Rector Hendrixstraat 5 A",
    "postal_code": "6051JK",
    "locality": "Maasbracht",
    "region": "Limburg",
    "latitude": "51.14609429999999",
    "longitude": "5.9031927"
  },
  {
    "name": "Dameskapsalon Rene",
    "street_address": "Engelenkampstraat 61",
    "postal_code": "6131JE",
    "locality": "Sittard",
    "region": "Limburg",
    "latitude": "50.9966461",
    "longitude": "5.866976699999999"
  },
  {
    "name": "Kreatos Heerlen",
    "street_address": "Oranje Nassaustraat 13",
    "postal_code": "6411LE",
    "locality": "Heerlen",
    "region": "Limburg",
    "latitude": "50.8888913",
    "longitude": "5.9787833"
  },
  {
    "name": "De Heerenkamer",
    "street_address": "Alberdingk Thijmstraat 31",
    "postal_code": "5921BA",
    "locality": "Venlo",
    "region": "Limburg",
    "latitude": "51.3668921",
    "longitude": "6.145786200000001"
  },
  {
    "name": "Hip",
    "street_address": "Akerstraat Noord 224",
    "postal_code": "6431HT",
    "locality": "Hoensbroek",
    "region": "Limburg",
    "latitude": "50.9276279",
    "longitude": "5.9399942"
  },
  {
    "name": "Haar Bizniz",
    "street_address": "Toortsweg 8",
    "postal_code": "5915HS",
    "locality": "Venlo",
    "region": "Limburg",
    "latitude": "51.3614171",
    "longitude": "6.195346799999999"
  },
  {
    "name": "coiffeur aon de deur",
    "street_address": "Veldje ",
    "postal_code": "6245AE",
    "locality": "Eijsden",
    "region": "Limburg",
    "latitude": "50.775445",
    "longitude": "5.7084147"
  },
  {
    "name": "Tukang",
    "street_address": "Schoolstraat 27",
    "postal_code": "6102AD",
    "locality": "Echt",
    "region": "Limburg",
    "latitude": "51.0977378",
    "longitude": "5.885819100000001"
  },
  {
    "name": "Hairstyle Tricolore",
    "street_address": "Van Doesburglaan 21",
    "postal_code": "6374PJ",
    "locality": "Landgraaf",
    "region": "Limburg",
    "latitude": "50.9166315",
    "longitude": "6.03899"
  },
  {
    "name": "Kappersacademie Venlo",
    "street_address": "Herungerstraat 1",
    "postal_code": "5911AJ",
    "locality": "Venlo",
    "region": "Limburg",
    "latitude": "51.372871",
    "longitude": "6.1753996"
  },
  {
    "name": "Herenkapsalon Jac. Flachs",
    "street_address": "Veldhofstraat 57 A",
    "postal_code": "6471CD",
    "locality": "Eygelshoven",
    "region": "Limburg",
    "latitude": "50.893376",
    "longitude": "6.061992999999999"
  },
  {
    "name": "Jaimie's Hair & Beautycare",
    "street_address": "Rijksweg 170",
    "postal_code": "6581EV",
    "locality": "Malden",
    "region": "Gelderland",
    "latitude": "51.7756688",
    "longitude": "5.8575684"
  },
  {
    "name": "Kapsalon Antoinette",
    "street_address": "Graeterhofweg 8",
    "postal_code": "6071AN",
    "locality": "Swalmen",
    "region": "Limburg",
    "latitude": "51.2151986",
    "longitude": "6.044418200000001"
  },
  {
    "name": "L'Unique",
    "street_address": "Akerstraat 45",
    "postal_code": "6411GW",
    "locality": "Heerlen",
    "region": "Limburg",
    "latitude": "50.8842886",
    "longitude": "5.9823622"
  },
  {
    "name": "Haar- en Nagelstudio Jose",
    "street_address": "Kruispad 3",
    "postal_code": "6561CH",
    "locality": "Groesbeek",
    "region": "Gelderland",
    "latitude": "51.7799588",
    "longitude": "5.9287452"
  },
  {
    "name": "Hair Studio for Men",
    "street_address": "Oude Raadhuis 2",
    "postal_code": "6245DE",
    "locality": "Eijsden",
    "region": "Limburg",
    "latitude": "50.7786456",
    "longitude": "5.70334"
  },
  {
    "name": "Anke's Hairstyling",
    "street_address": "Molenbeekstraat 7",
    "postal_code": "5985PW",
    "locality": "Grashoek",
    "region": "Limburg",
    "latitude": "51.35889479999999",
    "longitude": "5.9391348"
  },
  {
    "name": "Hairstyling Josette",
    "street_address": "Op de Spekt 42",
    "postal_code": "5871BG",
    "locality": "Broekhuizenvorst",
    "region": "Limburg",
    "latitude": "51.4968237",
    "longitude": "6.1601935"
  },
  {
    "name": "Herenkapsalon Frans Wijnhoven",
    "street_address": "Dorpstraat 83",
    "postal_code": "5993AM",
    "locality": "Maasbree",
    "region": "Limburg",
    "latitude": "51.35941649999999",
    "longitude": "6.054733199999999"
  },
  {
    "name": "Coiffures Edgar",
    "street_address": "Meierruwe 18 A",
    "postal_code": "6218BC",
    "locality": "Maastricht",
    "region": "Limburg",
    "latitude": "50.8641318",
    "longitude": "5.6561854"
  },
  {
    "name": "Haarmode Margo",
    "street_address": "Baron Conradstraat 8",
    "postal_code": "6243BG",
    "locality": "Geulle",
    "region": "Limburg",
    "latitude": "50.9237334",
    "longitude": "5.7496287"
  },
  {
    "name": "Crea Kappers & Visagie",
    "street_address": "Rijksweg Zuid 119",
    "postal_code": "6161BJ",
    "locality": "Geleen",
    "region": "Limburg",
    "latitude": "50.9640346",
    "longitude": "5.8239638"
  },
  {
    "name": "Hair Design",
    "street_address": "Raadhuisstraat 28",
    "postal_code": "5975BJ",
    "locality": "Sevenum",
    "region": "Limburg",
    "latitude": "51.4114877",
    "longitude": "6.0365896"
  },
  {
    "name": "Xing",
    "street_address": "Scharnerweg 145",
    "postal_code": "6224JD",
    "locality": "Maastricht",
    "region": "Limburg",
    "latitude": "50.8477865",
    "longitude": "5.7089132"
  },
  {
    "name": "Kapsalon Norbert Hairstyle",
    "street_address": "Brugstraat 26",
    "postal_code": "6591BD",
    "locality": "Gennep",
    "region": "Limburg",
    "latitude": "51.6982554",
    "longitude": "5.9692953"
  },
  {
    "name": "Kapsalon Shano",
    "street_address": "Op Gen Hek 18",
    "postal_code": "6367GL",
    "locality": "Voerendaal",
    "region": "Limburg",
    "latitude": "50.8728943",
    "longitude": "5.928543599999999"
  },
  {
    "name": "Kapsalon Maartje",
    "street_address": "Pr. Marijkestraat 31",
    "postal_code": "6039BW",
    "locality": "Stramproy",
    "region": "Limburg",
    "latitude": "51.1947832",
    "longitude": "5.7165332"
  },
  {
    "name": "Sis ZOR",
    "street_address": "Dorpsstraat 68",
    "postal_code": "6097AP",
    "locality": "Heel",
    "region": "Limburg",
    "latitude": "51.178789",
    "longitude": "5.897848"
  },
  {
    "name": "I Care Jacquelina",
    "street_address": "Fossielenerf 21",
    "postal_code": "6413LN",
    "locality": "Heerlen",
    "region": "Limburg",
    "latitude": "50.91274689999999",
    "longitude": "5.953878599999999"
  },
  {
    "name": "Kapsalon Suzan Caris",
    "street_address": "Stokstraat 21",
    "postal_code": "6211GB",
    "locality": "Maastricht",
    "region": "Limburg",
    "latitude": "50.8484699",
    "longitude": "5.6942258"
  },
  {
    "name": "Straight to the Point-Hairstyli..",
    "street_address": "Margrietstraat 18",
    "postal_code": "6129AE",
    "locality": "Urmond",
    "region": "Limburg",
    "latitude": "51.0059736",
    "longitude": "5.7743102"
  },
  {
    "name": "Salon That's IT",
    "street_address": "Elmpterweg 44 a",
    "postal_code": "6042KL",
    "locality": "Roermond",
    "region": "Limburg",
    "latitude": "51.2013427",
    "longitude": "6.0208258"
  },
  {
    "name": "Hair Desire",
    "street_address": "Broekhuizerweg 26",
    "postal_code": "5866BA",
    "locality": "Swolgen",
    "region": "Limburg",
    "latitude": "51.4910206",
    "longitude": "6.123463"
  },
  {
    "name": "Bob Stijl",
    "street_address": "Wilhelminastraat 76",
    "postal_code": "6431XX",
    "locality": "Hoensbroek",
    "region": "Limburg",
    "latitude": "50.9231077",
    "longitude": "5.934038"
  },
  {
    "name": "Hairsalon van Gils",
    "street_address": "Hubertusstraat 12",
    "postal_code": "6102AV",
    "locality": "Echt",
    "region": "Limburg",
    "latitude": "51.0958113",
    "longitude": "5.8885818"
  },
  {
    "name": "Avanti Hairstyling",
    "street_address": "Kloosterstraat 13",
    "postal_code": "6369AA",
    "locality": "Simpelveld",
    "region": "Limburg",
    "latitude": "50.8339173",
    "longitude": "5.9832397"
  },
  {
    "name": "Kapsalon d'n Tunnel",
    "street_address": "Scharnerweg 137 A",
    "postal_code": "6224JD",
    "locality": "Maastricht",
    "region": "Limburg",
    "latitude": "50.84787499999999",
    "longitude": "5.7093414"
  },
  {
    "name": "Zumka's Hairfashion",
    "street_address": "Kiosk 19",
    "postal_code": "5802NP",
    "locality": "Venray",
    "region": "Limburg",
    "latitude": "51.521541",
    "longitude": "5.9931392"
  },
  {
    "name": "Thuiskapster Irmgard",
    "street_address": "Gladiolenstraat 210",
    "postal_code": "6466TZ",
    "locality": "Kerkrade",
    "region": "Limburg",
    "latitude": "50.8622364",
    "longitude": "6.024929999999999"
  },
  {
    "name": "Dames- en Herenkapsalon Laven",
    "street_address": "Chèvremontstraat 23",
    "postal_code": "6463CH",
    "locality": "Kerkrade",
    "region": "Limburg",
    "latitude": "50.87450339999999",
    "longitude": "6.06367"
  },
  {
    "name": "Haarmode Godderij",
    "street_address": "Kerkstraat 298",
    "postal_code": "6441BM",
    "locality": "Brunssum",
    "region": "Limburg",
    "latitude": "50.9479183",
    "longitude": "5.9724242"
  },
  {
    "name": "kapsalon GM",
    "street_address": "Van Weerden Poelmanstraat 9",
    "postal_code": "6417EJ",
    "locality": "Heerlen",
    "region": "Limburg",
    "latitude": "50.8762581",
    "longitude": "5.983011800000001"
  },
  {
    "name": "Kapsalon Nadine Goumans",
    "street_address": "Julianasingel 3 a",
    "postal_code": "5802AS",
    "locality": "Venray",
    "region": "Limburg",
    "latitude": "51.5274179",
    "longitude": "5.9770838"
  },
  {
    "name": "Salon Marion",
    "street_address": "Gouverneur Houbenlaan 19",
    "postal_code": "6151ER",
    "locality": "Munstergeleen",
    "region": "Limburg",
    "latitude": "50.9727732",
    "longitude": "5.858016200000001"
  },
  {
    "name": "Kapsalon Via Via",
    "street_address": "Kockerseweg 56",
    "postal_code": "5927PH",
    "locality": "Venlo",
    "region": "Limburg",
    "latitude": "51.3756752",
    "longitude": "6.114765900000001"
  },
  {
    "name": "All Style Hairsalon",
    "street_address": "Leutherweg 31 A",
    "postal_code": "5915CA",
    "locality": "Venlo",
    "region": "Limburg",
    "latitude": "51.3587943",
    "longitude": "6.1819909"
  },
  {
    "name": "Kapsalon Friends",
    "street_address": "Dorpstraat 74",
    "postal_code": "6122CC",
    "locality": "Buchten",
    "region": "Limburg",
    "latitude": "51.0428631",
    "longitude": "5.808071"
  },
  {
    "name": "Van den Beuken-Hermans",
    "street_address": "Rector de Fauwestraat 35",
    "postal_code": "5964AE",
    "locality": "Meterik",
    "region": "Limburg",
    "latitude": "51.45515529999999",
    "longitude": "6.022412399999999"
  },
  {
    "name": "Haarmode Mischa",
    "street_address": "Wieldersstraat 17",
    "postal_code": "6412ZP",
    "locality": "Heerlen",
    "region": "Limburg",
    "latitude": "50.9010521",
    "longitude": "5.9520579"
  },
  {
    "name": "Alice's Hairshop",
    "street_address": "Floribertusstraat 11 A",
    "postal_code": "6444XG",
    "locality": "Brunssum",
    "region": "Limburg",
    "latitude": "50.9365158",
    "longitude": "5.9534587"
  },
  {
    "name": "Ld's Hairart",
    "street_address": "Koestraat ",
    "postal_code": "6125BE",
    "locality": "Heerhugowaard",
    "region": "Noord-Holland",
    "latitude": "51.025917",
    "longitude": "5.783100999999999"
  },
  {
    "name": "Kelly's Hairfashion",
    "street_address": "Knipstraat 7 A",
    "postal_code": "6321AM",
    "locality": "Wijlre",
    "region": "Limburg",
    "latitude": "50.8298828",
    "longitude": "5.8967876"
  },
  {
    "name": "J.H.M. Prinssen",
    "street_address": "Kloosterstraat 38",
    "postal_code": "6093CX",
    "locality": "Heythuysen",
    "region": "Limburg",
    "latitude": "51.2502093",
    "longitude": "5.889926099999999"
  },
  {
    "name": "A. Kessels",
    "street_address": "Heierveldlaan 53",
    "postal_code": "5993GD",
    "locality": "Maasbree",
    "region": "Limburg",
    "latitude": "51.3609259",
    "longitude": "6.0454191"
  },
  {
    "name": "Richart Kappers",
    "street_address": "Geijsterseweg 1 a",
    "postal_code": "5861BK",
    "locality": "Wanssum",
    "region": "Limburg",
    "latitude": "51.5357717",
    "longitude": "6.0771427"
  },
  {
    "name": "Hair-Palace",
    "street_address": "Bleijerheiderstraat 5",
    "postal_code": "6462AC",
    "locality": "Kerkrade",
    "region": "Limburg",
    "latitude": "50.8583939",
    "longitude": "6.0682221"
  },
  {
    "name": "Kapsalon The Lounge",
    "street_address": "Peldenstraat 8",
    "postal_code": "6171XX",
    "locality": "Stein",
    "region": "Limburg",
    "latitude": "50.9619808",
    "longitude": "5.7720151"
  },
  {
    "name": "Dameskapsalon Hairline",
    "street_address": "Koning Karelstraat 15",
    "postal_code": "6231BV",
    "locality": "Meerssen",
    "region": "Limburg",
    "latitude": "50.8799771",
    "longitude": "5.740434100000001"
  },
  {
    "name": "Miss Men Hairstyling",
    "street_address": "Ligusterstraat 19",
    "postal_code": "6101MD",
    "locality": "Echt",
    "region": "Limburg",
    "latitude": "51.1092813",
    "longitude": "5.8769911"
  },
  {
    "name": "Anette Bis Haarstudio",
    "street_address": "Kruidenlaan 153",
    "postal_code": "5803BV",
    "locality": "Venray",
    "region": "Limburg",
    "latitude": "51.5327022",
    "longitude": "5.991962099999999"
  },
  {
    "name": "Kapsalon Ingrid",
    "street_address": "Pottenbakker 80",
    "postal_code": "6596GB",
    "locality": "Milsbeek",
    "region": "Limburg",
    "latitude": "51.7293554",
    "longitude": "5.9529485"
  },
  {
    "name": "Kapsalon Godelief",
    "street_address": "Onder de Bomen 4",
    "postal_code": "6017AL",
    "locality": "Thorn",
    "region": "Limburg",
    "latitude": "51.1589906",
    "longitude": "5.841937100000001"
  },
  {
    "name": "Mooj Haar en Make-up",
    "street_address": "Pastoor van der Zandtstraat 22",
    "postal_code": "6093KD",
    "locality": "Heythuysen",
    "region": "Limburg",
    "latitude": "51.254093",
    "longitude": "5.881125"
  },
  {
    "name": "Shiwa's Haar- & Nagelstudio",
    "street_address": "Bosstraat 3",
    "postal_code": "6301HM",
    "locality": "Valkenburg",
    "region": "Limburg",
    "latitude": "50.8718477",
    "longitude": "5.823367999999999"
  },
  {
    "name": "Salon-13",
    "street_address": "Korenbloemstraat 13",
    "postal_code": "6088AW",
    "locality": "Roggel",
    "region": "Limburg",
    "latitude": "51.26291819999999",
    "longitude": "5.9280629"
  },
  {
    "name": "Lilian Janssen Ambulant Kapster",
    "street_address": "Schout Wylerstraat 35",
    "postal_code": "6042VP",
    "locality": "Roermond",
    "region": "Limburg",
    "latitude": "51.2042113",
    "longitude": "6.015657"
  },
  {
    "name": "Kapsalon De Knip-Hook",
    "street_address": "Krommenhoek 8",
    "postal_code": "5953JV",
    "locality": "Reuver",
    "region": "Limburg",
    "latitude": "51.2830458",
    "longitude": "6.099703"
  },
  {
    "name": "D & Y Hairdesign",
    "street_address": "Maastrichterlaan 176",
    "postal_code": "6291EW",
    "locality": "Vaals",
    "region": "Limburg",
    "latitude": "50.7746635",
    "longitude": "6.0121587"
  },
  {
    "name": "Coiffeur Math",
    "street_address": "Kerkstraat 13",
    "postal_code": "6291AA",
    "locality": "Vaals",
    "region": "Limburg",
    "latitude": "50.7709616",
    "longitude": "6.0233642"
  },
  {
    "name": "Artistiek",
    "street_address": "Sint Amorsplein 10",
    "postal_code": "6211GT",
    "locality": "Maastricht",
    "region": "Limburg",
    "latitude": "50.8490289",
    "longitude": "5.690302600000001"
  },
  {
    "name": "Kapsalon Marianne van Rijn",
    "street_address": "Steinhagenstraat 18",
    "postal_code": "5975BG",
    "locality": "Sevenum",
    "region": "Limburg",
    "latitude": "51.4131569",
    "longitude": "6.0407009"
  },
  {
    "name": "Kapsalon Claessens",
    "street_address": "Koperslagersdreef 24",
    "postal_code": "6216SR",
    "locality": "Maastricht",
    "region": "Limburg",
    "latitude": "50.84599050000001",
    "longitude": "5.6569745"
  },
  {
    "name": "Kapsalon Harry de Kapper",
    "street_address": "Hondsroos 2",
    "postal_code": "5432GN",
    "locality": "Cuijk",
    "region": "Noord-Brabant",
    "latitude": "51.7328527",
    "longitude": "5.8594626"
  },
  {
    "name": "Freestyle kappers Venray",
    "street_address": "Gouden Leeuwpad 10",
    "postal_code": "5801ME",
    "locality": "Venray",
    "region": "Limburg",
    "latitude": "51.52429540000001",
    "longitude": "5.9735081"
  },
  {
    "name": "Kapper Smeets",
    "street_address": "Provincialeweg 107",
    "postal_code": "6438BC",
    "locality": "Oirsbeek",
    "region": "Limburg",
    "latitude": "50.9594297",
    "longitude": "5.9076206"
  },
  {
    "name": "Indigo",
    "street_address": "Prins Johan Frisolaan 2",
    "postal_code": "6241GG",
    "locality": "Bunde",
    "region": "Limburg",
    "latitude": "50.8924741",
    "longitude": "5.73962"
  },
  {
    "name": "Bea's Haircare",
    "street_address": "Julianastraat 47",
    "postal_code": "5961BN",
    "locality": "Horst",
    "region": "Limburg",
    "latitude": "51.46249419999999",
    "longitude": "6.0466163"
  },
  {
    "name": "Hairstyling Paul",
    "street_address": "Brugstraat 27",
    "postal_code": "6591BA",
    "locality": "Gennep",
    "region": "Limburg",
    "latitude": "51.6983045",
    "longitude": "5.9688908"
  },
  {
    "name": "Kapsalon Nadine",
    "street_address": "Elsstraat 17",
    "postal_code": "6191JW",
    "locality": "Beek",
    "region": "Limburg",
    "latitude": "50.9403489",
    "longitude": "5.794346699999999"
  },
  {
    "name": "ER Hair & Make-up Artist",
    "street_address": "Stationsstraat 32",
    "postal_code": "5431CD",
    "locality": "Cuijk",
    "region": "Noord-Brabant",
    "latitude": "51.72796959999999",
    "longitude": "5.8754266"
  },
  {
    "name": "Peggy's Hairstudio",
    "street_address": "Roebroekweg 74",
    "postal_code": "6414BE",
    "locality": "Heerlen",
    "region": "Limburg",
    "latitude": "50.9145992",
    "longitude": "5.9718176"
  },
  {
    "name": "Les Artistes Kappers Roermond",
    "street_address": "Markt 12",
    "postal_code": "6041EL",
    "locality": "Roermond",
    "region": "Limburg",
    "latitude": "51.1955368",
    "longitude": "5.9851721"
  },
  {
    "name": "Trendy Knip",
    "street_address": "Sint Martinusweg 19",
    "postal_code": "6063BT",
    "locality": "Vlodrop",
    "region": "Limburg",
    "latitude": "51.1327152",
    "longitude": "6.0739264"
  },
  {
    "name": "Shaggy Kappers",
    "street_address": "Heerlerbaan 145",
    "postal_code": "6418CC",
    "locality": "Heerlen",
    "region": "Limburg",
    "latitude": "50.8687612",
    "longitude": "5.9985129"
  },
  {
    "name": "Nagel- en Kapsalon Joël",
    "street_address": "Milleveld 2",
    "postal_code": "6367AS",
    "locality": "Voerendaal",
    "region": "Limburg",
    "latitude": "50.8741419",
    "longitude": "5.9308597"
  },
  {
    "name": "Kapsalon Figaro",
    "street_address": "Hoendercamp 30",
    "postal_code": "5953DC",
    "locality": "Reuver",
    "region": "Limburg",
    "latitude": "51.2803864",
    "longitude": "6.0664092"
  },
  {
    "name": "W. van der Linden",
    "street_address": "Willem Boyeweg 19",
    "postal_code": "6591ZT",
    "locality": "Gennep",
    "region": "Limburg",
    "latitude": "51.6936415",
    "longitude": "5.9752383"
  },
  {
    "name": "Kapsalon Brigitte",
    "street_address": "Napoleonsweg 4 a",
    "postal_code": "6081AD",
    "locality": "Haelen",
    "region": "Limburg",
    "latitude": "51.2248274",
    "longitude": "5.944290800000001"
  },
  {
    "name": "Haarvorming Michaël Schobben",
    "street_address": "Oelovenstraat 2",
    "postal_code": "6442BK",
    "locality": "Brunssum",
    "region": "Limburg",
    "latitude": "50.956438",
    "longitude": "5.9798759"
  },
  {
    "name": "Kapsalon Vloet-Ewalds",
    "street_address": "Monseigneur Hanssenstraat 1",
    "postal_code": "5807BA",
    "locality": "Oostrum",
    "region": "Limburg",
    "latitude": "51.5289362",
    "longitude": "6.0123902"
  },
  {
    "name": "Hair Fashion Gigi voor hem & ha..",
    "street_address": "Kennedylaan 80",
    "postal_code": "6441JG",
    "locality": "Brunssum",
    "region": "Limburg",
    "latitude": "50.9492756",
    "longitude": "5.9598621"
  },
  {
    "name": "Hairstyling Sonja",
    "street_address": "Hoogstraat 15",
    "postal_code": "5986AA",
    "locality": "Beringe",
    "region": "Limburg",
    "latitude": "51.3403498",
    "longitude": "5.941206999999999"
  },
  {
    "name": "BrainWash Kerkrade",
    "street_address": "Hertogenlaan 23",
    "postal_code": "6461BT",
    "locality": "Kerkrade",
    "region": "Limburg",
    "latitude": "50.8692651",
    "longitude": "6.0691491"
  },
  {
    "name": "Kapsalon Frans Debats",
    "street_address": "Rechtstraat 54",
    "postal_code": "6221EK",
    "locality": "Maastricht",
    "region": "Limburg",
    "latitude": "50.8488106",
    "longitude": "5.6981042"
  },
  {
    "name": "Kapsalon Elly",
    "street_address": "Bertiliastraat 7",
    "postal_code": "6005PA",
    "locality": "Weert",
    "region": "Limburg",
    "latitude": "51.2299095",
    "longitude": "5.7727644"
  },
  {
    "name": "Ivon's Hairshop",
    "street_address": "Pasveldweg 20",
    "postal_code": "6088HD",
    "locality": "Roggel",
    "region": "Limburg",
    "latitude": "51.2596754",
    "longitude": "5.923712399999999"
  },
  {
    "name": "Hermens Haarmode Meerssen",
    "street_address": "Bunderstraat 12",
    "postal_code": "6231EL",
    "locality": "Meerssen",
    "region": "Limburg",
    "latitude": "50.8851895",
    "longitude": "5.7523678"
  },
  {
    "name": "Haarmode GE.TE",
    "street_address": "Rijksweg Zuid 245",
    "postal_code": "6161BM",
    "locality": "Geleen",
    "region": "Limburg",
    "latitude": "50.9589978",
    "longitude": "5.8175683"
  },
  {
    "name": "Difference Hair Fashion",
    "street_address": "Heerlenerweg 5",
    "postal_code": "6132CK",
    "locality": "Sittard",
    "region": "Limburg",
    "latitude": "50.9841792",
    "longitude": "5.8669902"
  },
  {
    "name": "Kapper Francois",
    "street_address": "Clavecymbelstraat 78",
    "postal_code": "6217CW",
    "locality": "Maastricht",
    "region": "Limburg",
    "latitude": "50.8602791",
    "longitude": "5.6687856"
  },
  {
    "name": "AmmonHair",
    "street_address": "Ammonieterf 287",
    "postal_code": "6413KT",
    "locality": "Heerlen",
    "region": "Limburg",
    "latitude": "50.910186",
    "longitude": "5.9499942"
  },
  {
    "name": "Kikki Kappers Landgraaf",
    "street_address": "Hoogstraat 152",
    "postal_code": "6373HZ",
    "locality": "Landgraaf",
    "region": "Limburg",
    "latitude": "50.9064911",
    "longitude": "6.0246018"
  },
  {
    "name": "Dames- en Herenkapsalon Ria",
    "street_address": "Kapittellaan 17",
    "postal_code": "6077BK",
    "locality": "Sint Odiliënberg",
    "region": "Limburg",
    "latitude": "51.1422969",
    "longitude": "6.0034068"
  },
  {
    "name": "Magic Hair by R.N.",
    "street_address": "Promenade 9",
    "postal_code": "6581BW",
    "locality": "Malden",
    "region": "Gelderland",
    "latitude": "51.7818615",
    "longitude": "5.8525151"
  },
  {
    "name": "Knipart",
    "street_address": "Strateris 2",
    "postal_code": "6031PC",
    "locality": "Nederweert",
    "region": "Limburg",
    "latitude": "51.2880847",
    "longitude": "5.7458016"
  },
  {
    "name": "Monique van Heesewijk-Poell",
    "street_address": "Brugske 8",
    "postal_code": "6031BL",
    "locality": "Nederweert",
    "region": "Limburg",
    "latitude": "51.288509",
    "longitude": "5.752888"
  },
  {
    "name": "Kapsalon AUDRY",
    "street_address": "Einder Coolhoff 75",
    "postal_code": "6155JE",
    "locality": "Puth",
    "region": "Limburg",
    "latitude": "50.9493012",
    "longitude": "5.875820399999999"
  },
  {
    "name": "Kapsalon Verstraeten",
    "street_address": "Dorpsstraat 6",
    "postal_code": "5768CE",
    "locality": "Meijel",
    "region": "Limburg",
    "latitude": "51.3448291",
    "longitude": "5.8853635"
  },
  {
    "name": "John Hairstyling",
    "street_address": "Coriovallumstraat 14",
    "postal_code": "6411CC",
    "locality": "Heerlen",
    "region": "Limburg",
    "latitude": "50.8856215",
    "longitude": "5.9765957"
  },
  {
    "name": "Kapsalon Knippie",
    "street_address": "Waatskamp 90",
    "postal_code": "6035BV",
    "locality": "Ospel",
    "region": "Limburg",
    "latitude": "51.2955237",
    "longitude": "5.7899632"
  },
  {
    "name": "Kapsalon Marielle",
    "street_address": "Bellefleur 36",
    "postal_code": "6245PK",
    "locality": "Eijsden",
    "region": "Limburg",
    "latitude": "50.77980179999999",
    "longitude": "5.717094899999999"
  },
  {
    "name": "Hairfashion Ludo",
    "street_address": "Slekkerstraat 25 a",
    "postal_code": "6102VH",
    "locality": "Echt",
    "region": "Limburg",
    "latitude": "51.0885206",
    "longitude": "5.8866612"
  },
  {
    "name": "Janine's Hairsensation",
    "street_address": "Theobaldusweg ",
    "postal_code": "5825BL",
    "locality": "Overloon",
    "region": "Noord-Brabant",
    "latitude": "51.5733026",
    "longitude": "5.9454825"
  },
  {
    "name": "MEQ - Hair & Wellness",
    "street_address": "Bloemenmarkt 36 A",
    "postal_code": "6163CG",
    "locality": "Geleen",
    "region": "Limburg",
    "latitude": "50.9848495",
    "longitude": "5.814377599999999"
  },
  {
    "name": "Chennez & Jerry",
    "street_address": "Lohofstraat 4",
    "postal_code": "5911BN",
    "locality": "Venlo",
    "region": "Limburg",
    "latitude": "51.3696936",
    "longitude": "6.1717954"
  },
  {
    "name": "Pitt Hairstyle",
    "street_address": "Blaktweg 77",
    "postal_code": "5962NG",
    "locality": "Melderslo",
    "region": "Limburg",
    "latitude": "51.4614882",
    "longitude": "6.102364499999999"
  },
  {
    "name": "Salon Unique",
    "street_address": "Julianalaan 63",
    "postal_code": "6042JE",
    "locality": "Roermond",
    "region": "Limburg",
    "latitude": "51.1998791",
    "longitude": "6.0066595"
  },
  {
    "name": "Image",
    "street_address": "Pastoor Huijbenplein 32",
    "postal_code": "5981BH",
    "locality": "Panningen",
    "region": "Limburg",
    "latitude": "51.3283308",
    "longitude": "5.979714299999999"
  },
  {
    "name": "Hair id",
    "street_address": "Meidoornlaan 14",
    "postal_code": "6088AL",
    "locality": "Roggel",
    "region": "Limburg",
    "latitude": "51.2590987",
    "longitude": "5.9336623"
  },
  {
    "name": "Hairwishes",
    "street_address": "De Thun 6",
    "postal_code": "6419XJ",
    "locality": "Heerlen",
    "region": "Limburg",
    "latitude": "50.8721501",
    "longitude": "5.965300699999999"
  },
  {
    "name": "Ambulant Kapster Cindy",
    "street_address": "Kogelstraat 5",
    "postal_code": "5963AN",
    "locality": "Hegelsom",
    "region": "Limburg",
    "latitude": "51.4381727",
    "longitude": "6.037564799999999"
  },
  {
    "name": "Kapsalon Kop-op",
    "street_address": "Hendrikxstraat 82",
    "postal_code": "5912BZ",
    "locality": "Venlo",
    "region": "Limburg",
    "latitude": "51.3627088",
    "longitude": "6.1652051"
  },
  {
    "name": "Kapsalon ALL-ROUND",
    "street_address": "Sint Hubertusplein 13",
    "postal_code": "5921BD",
    "locality": "Venlo",
    "region": "Limburg",
    "latitude": "51.3669228",
    "longitude": "6.142455099999999"
  },
  {
    "name": "Herenkapsalon Jos",
    "street_address": "Kruisstraat 1",
    "postal_code": "6006ZJ",
    "locality": "Weert",
    "region": "Limburg",
    "latitude": "51.2415617",
    "longitude": "5.7000573"
  },
  {
    "name": "Kapsalon Anja",
    "street_address": "Meerstraat 24",
    "postal_code": "6241ND",
    "locality": "Bunde",
    "region": "Limburg",
    "latitude": "50.9005277",
    "longitude": "5.723269999999999"
  },
  {
    "name": "HairZ Weert",
    "street_address": "Wilhelminasingel 242",
    "postal_code": "6001GV",
    "locality": "Weert",
    "region": "Limburg",
    "latitude": "51.25468679999999",
    "longitude": "5.7039085"
  },
  {
    "name": "Wow",
    "street_address": "Koninginnesingel 30",
    "postal_code": "5911KC",
    "locality": "Venlo",
    "region": "Limburg",
    "latitude": "51.36695839999999",
    "longitude": "6.1684046"
  },
  {
    "name": "Kapsalon Heunbern",
    "street_address": "Heinsbergerweg 176",
    "postal_code": "6045CK",
    "locality": "Roermond",
    "region": "Limburg",
    "latitude": "51.1728774",
    "longitude": "5.9984834"
  },
  {
    "name": "Kapsalon Rob",
    "street_address": "Pieter Breughelstraat 11",
    "postal_code": "5854EB",
    "locality": "Bergen",
    "region": "Limburg",
    "latitude": "51.6027409",
    "longitude": "6.0527343"
  },
  {
    "name": "Kapsalon Jeanne",
    "street_address": "Veerstraat 49",
    "postal_code": "5831JM",
    "locality": "Boxmeer",
    "region": "Noord-Brabant",
    "latitude": "51.65114999999999",
    "longitude": "5.9574475"
  },
  {
    "name": "Studio Tonnaer-Weerts",
    "street_address": "Broekhem 115",
    "postal_code": "6301HG",
    "locality": "Valkenburg",
    "region": "Limburg",
    "latitude": "50.8714699",
    "longitude": "5.8184282"
  },
  {
    "name": "Omnilook",
    "street_address": "Heumensebaan 7",
    "postal_code": "6584CL",
    "locality": "Molenhoek",
    "region": "Limburg",
    "latitude": "51.7708686",
    "longitude": "5.8783619"
  },
  {
    "name": "Kapsalon Marscha",
    "street_address": "Haverterstraat 23",
    "postal_code": "6118CC",
    "locality": "Nieuwstadt",
    "region": "Limburg",
    "latitude": "51.0378993",
    "longitude": "5.8620889"
  },
  {
    "name": "Herenkapsalon Nek",
    "street_address": "Dorpstraat 21",
    "postal_code": "6454AG",
    "locality": "Jabeek",
    "region": "Limburg",
    "latitude": "50.980888",
    "longitude": "5.9398915"
  },
  {
    "name": "Kapsalon Femke",
    "street_address": "Hoofdstraat 25 b",
    "postal_code": "5808AS",
    "locality": "Oirlo",
    "region": "Limburg",
    "latitude": "51.51013",
    "longitude": "6.0373551"
  },
  {
    "name": "Kapsalon Hair Look",
    "street_address": "Havikstraat 5 A",
    "postal_code": "6135ED",
    "locality": "Sittard",
    "region": "Limburg",
    "latitude": "51.00506009999999",
    "longitude": "5.845529"
  },
  {
    "name": "Hairforce 1",
    "street_address": "Brugstraat 3",
    "postal_code": "6591BA",
    "locality": "Gennep",
    "region": "Limburg",
    "latitude": "51.6989197",
    "longitude": "5.9707596"
  },
  {
    "name": "By Creative",
    "street_address": "Diamantstraat 48",
    "postal_code": "6015BD",
    "locality": "Neeritter",
    "region": "Limburg",
    "latitude": "51.1675714",
    "longitude": "5.8023164"
  },
  {
    "name": "Your Style",
    "street_address": "Hemelsley 159 C",
    "postal_code": "6137BN",
    "locality": "Sittard",
    "region": "Limburg",
    "latitude": "51.0028829",
    "longitude": "5.882485399999999"
  },
  {
    "name": "Kapsalon New Sing's",
    "street_address": "Markt 8",
    "postal_code": "6211CH",
    "locality": "Maastricht",
    "region": "Limburg",
    "latitude": "50.8511195",
    "longitude": "5.6902054"
  },
  {
    "name": "Femmy’s",
    "street_address": "Wilhelminastraat 36",
    "postal_code": "6285AV",
    "locality": "Epen",
    "region": "Limburg",
    "latitude": "50.7742324",
    "longitude": "5.912847900000001"
  },
  {
    "name": "Coiffures Willy",
    "street_address": "Erasmusdomein 1",
    "postal_code": "6229GB",
    "locality": "Maastricht",
    "region": "Limburg",
    "latitude": "50.83615589999999",
    "longitude": "5.7066564"
  },
  {
    "name": "Hairpoint",
    "street_address": "Schiffelerstraat 7",
    "postal_code": "6441CN",
    "locality": "Brunssum",
    "region": "Limburg",
    "latitude": "50.94602339999999",
    "longitude": "5.9703085"
  },
  {
    "name": "New Looks Hairdesign",
    "street_address": "Beekstraat 77 a",
    "postal_code": "6001GH",
    "locality": "Weert",
    "region": "Limburg",
    "latitude": "51.2567297",
    "longitude": "5.7052464"
  },
  {
    "name": "Kapsalon Titulaer",
    "street_address": "Krekelveldstraat 7",
    "postal_code": "5912GA",
    "locality": "Venlo",
    "region": "Limburg",
    "latitude": "51.3613637",
    "longitude": "6.1694074"
  },
  {
    "name": "Van Baaden Kapsalon",
    "street_address": "Burgemeester Peetersstraat 28",
    "postal_code": "5922TT",
    "locality": "Venlo",
    "region": "Limburg",
    "latitude": "51.370845",
    "longitude": "6.1445587"
  },
  {
    "name": "Le Miroir Qui Rit",
    "street_address": "Wilhelminastraat 24",
    "postal_code": "6285AV",
    "locality": "Epen",
    "region": "Limburg",
    "latitude": "50.7752317",
    "longitude": "5.912519"
  },
  {
    "name": "J.W.M. Kohnen",
    "street_address": "Jos Francotteweg 5",
    "postal_code": "6291GN",
    "locality": "Vaals",
    "region": "Limburg",
    "latitude": "50.7733518",
    "longitude": "6.0186337"
  },
  {
    "name": "'t Schierke",
    "street_address": "Hovenstraat 56",
    "postal_code": "6374HE",
    "locality": "Landgraaf",
    "region": "Limburg",
    "latitude": "50.9148399",
    "longitude": "6.044909199999999"
  },
  {
    "name": "Kapsalon Gaby van der Made",
    "street_address": "Graaf Gerhardstraat 17",
    "postal_code": "5913VP",
    "locality": "Venlo",
    "region": "Limburg",
    "latitude": "51.3687558",
    "longitude": "6.184416"
  },
  {
    "name": "HAARRIJK",
    "street_address": "Kalverhof 3",
    "postal_code": "6241CZ",
    "locality": "Bunde",
    "region": "Limburg",
    "latitude": "50.8997819",
    "longitude": "5.730692"
  },
  {
    "name": "Coiffeur Harrie",
    "street_address": "Stationstraat 9",
    "postal_code": "6231CK",
    "locality": "Meerssen",
    "region": "Limburg",
    "latitude": "50.8846846",
    "longitude": "5.7528611"
  },
  {
    "name": "Hairexpresse",
    "street_address": "Grasbroekerweg 132",
    "postal_code": "6412BH",
    "locality": "Heerlen",
    "region": "Limburg",
    "latitude": "50.8974842",
    "longitude": "5.9735913"
  },
  {
    "name": "Ragazzi Kappers",
    "street_address": "Grotestraat 7",
    "postal_code": "5991AV",
    "locality": "Baarlo",
    "region": "Limburg",
    "latitude": "51.3312162",
    "longitude": "6.0955753"
  },
  {
    "name": "Thuiskapster Christel",
    "street_address": "Voldersdreef 8",
    "postal_code": "6216TE",
    "locality": "Maastricht",
    "region": "Limburg",
    "latitude": "50.846795",
    "longitude": "5.6542718"
  },
  {
    "name": "Hairstudio All-Inn",
    "street_address": "Kapelweg 4 E",
    "postal_code": "6121JB",
    "locality": "Born",
    "region": "Limburg",
    "latitude": "51.03271849999999",
    "longitude": "5.808739699999999"
  },
  {
    "name": "Gabry Hairdesign",
    "street_address": "Hoofdstraat 66",
    "postal_code": "6333BK",
    "locality": "Schimmert",
    "region": "Limburg",
    "latitude": "50.9053923",
    "longitude": "5.8259972"
  },
  {
    "name": "Beau Visage",
    "street_address": "Kochstraat 27",
    "postal_code": "6164HA",
    "locality": "Geleen",
    "region": "Limburg",
    "latitude": "50.9573759",
    "longitude": "5.8328529"
  },
  {
    "name": "Kappersbedrijf Maartenshof",
    "street_address": "Deken van Den Ackerhof 29",
    "postal_code": "5431DP",
    "locality": "Cuijk",
    "region": "Noord-Brabant",
    "latitude": "51.73080849999999",
    "longitude": "5.882152899999999"
  },
  {
    "name": "Kapsalon Seelen-Peters",
    "street_address": "Industriestraat 52",
    "postal_code": "5931PK",
    "locality": "Tegelen",
    "region": "Limburg",
    "latitude": "51.3387687",
    "longitude": "6.1397365"
  },
  {
    "name": "Haarverzorging Headline",
    "street_address": "Scharnerweg 87",
    "postal_code": "6224JB",
    "locality": "Maastricht",
    "region": "Limburg",
    "latitude": "50.84871529999999",
    "longitude": "5.7155749"
  },
  {
    "name": "Kapsalon Charisma",
    "street_address": "Rijksweg Zuid 228",
    "postal_code": "6161BX",
    "locality": "Geleen",
    "region": "Limburg",
    "latitude": "50.9600731",
    "longitude": "5.818460700000001"
  },
  {
    "name": "Kapsalon Leon Theunissen",
    "street_address": "Valkenburgerweg 12",
    "postal_code": "6411BN",
    "locality": "Heerlen",
    "region": "Limburg",
    "latitude": "50.8860184",
    "longitude": "5.9745544"
  },
  {
    "name": "De Flitsende Schaar",
    "street_address": "Hoppenraderweg 15",
    "postal_code": "6071AP",
    "locality": "Swalmen",
    "region": "Limburg",
    "latitude": "51.216644",
    "longitude": "6.0463282"
  },
  {
    "name": "Haar & Zo",
    "street_address": "Eduard van Wegbergplein 29",
    "postal_code": "6093EX",
    "locality": "Heythuysen",
    "region": "Limburg",
    "latitude": "51.2496217",
    "longitude": "5.894576"
  },
  {
    "name": "Haarmode Jacobs",
    "street_address": "Sint Catharinastraat 27",
    "postal_code": "6235BC",
    "locality": "Ulestraten",
    "region": "Limburg",
    "latitude": "50.9057656",
    "longitude": "5.7832672"
  },
  {
    "name": "Salon Stelten",
    "street_address": "Millenerstraat 6 a",
    "postal_code": "6118CB",
    "locality": "Nieuwstadt",
    "region": "Limburg",
    "latitude": "51.0360489",
    "longitude": "5.8609848"
  },
  {
    "name": "Destiny-kapper",
    "street_address": "Walcundusstraat 16",
    "postal_code": "6444TZ",
    "locality": "Brunssum",
    "region": "Limburg",
    "latitude": "50.9374791",
    "longitude": "5.9568137"
  },
  {
    "name": "Hairstudio Bianca",
    "street_address": "Seingeverstraat 8",
    "postal_code": "6432DK",
    "locality": "Hoensbroek",
    "region": "Limburg",
    "latitude": "50.9239766",
    "longitude": "5.9153462"
  },
  {
    "name": "Haircraze",
    "street_address": "Mariënwaard 44",
    "postal_code": "6222AN",
    "locality": "Maastricht",
    "region": "Limburg",
    "latitude": "50.8700789",
    "longitude": "5.7197181"
  },
  {
    "name": "Joey Hairdesign",
    "street_address": "Promenade 45",
    "postal_code": "6581BW",
    "locality": "Malden",
    "region": "Gelderland",
    "latitude": "51.7817307",
    "longitude": "5.8531777"
  },
  {
    "name": "Zalon 43",
    "street_address": "Aan de Greune Paol 43",
    "postal_code": "6127BH",
    "locality": "Grevenbicht",
    "region": "Limburg",
    "latitude": "51.0417674",
    "longitude": "5.7769634"
  },
  {
    "name": "D.C.M. Daniels",
    "street_address": "Cantecleerstraat 89",
    "postal_code": "6217BV",
    "locality": "Maastricht",
    "region": "Limburg",
    "latitude": "50.857333",
    "longitude": "5.6624588"
  },
  {
    "name": "Christa",
    "street_address": "Spoorlaan 11",
    "postal_code": "6562AL",
    "locality": "Groesbeek",
    "region": "Gelderland",
    "latitude": "51.7773117",
    "longitude": "5.9374221"
  },
  {
    "name": "Kapsalon Jolanda",
    "street_address": "Sibberkerkstraat 87",
    "postal_code": "6301AV",
    "locality": "Valkenburg",
    "region": "Limburg",
    "latitude": "50.8442513",
    "longitude": "5.8232458"
  },
  {
    "name": "Schettering Hair & Beauty Heerl..",
    "street_address": "Oude Kerkstraat 44",
    "postal_code": "6412XJ",
    "locality": "Heerlen",
    "region": "Limburg",
    "latitude": "50.8939619",
    "longitude": "5.981068899999999"
  },
  {
    "name": "Kapsalon Hij / Zij",
    "street_address": "Wildschut 1",
    "postal_code": "6581BA",
    "locality": "Malden",
    "region": "Gelderland",
    "latitude": "51.7852073",
    "longitude": "5.8491266"
  },
  {
    "name": "Kapsalon Janine",
    "street_address": "Laurastraat 7",
    "postal_code": "6471JG",
    "locality": "Eygelshoven",
    "region": "Limburg",
    "latitude": "50.8936087",
    "longitude": "6.0598705"
  },
  {
    "name": "Square Kappers",
    "street_address": "Carleyspassage 5",
    "postal_code": "5921JW",
    "locality": "Venlo",
    "region": "Limburg",
    "latitude": "51.3661042",
    "longitude": "6.152672099999999"
  },
  {
    "name": "Kapper Rob",
    "street_address": "Kluis 56",
    "postal_code": "6165EN",
    "locality": "Geleen",
    "region": "Limburg",
    "latitude": "50.9630964",
    "longitude": "5.8342604"
  },
  {
    "name": "Haarmode Andre",
    "street_address": "Rijksweg 74",
    "postal_code": "6585AG",
    "locality": "Mook",
    "region": "Limburg",
    "latitude": "51.751379",
    "longitude": "5.8810563"
  },
  {
    "name": "Haarmode Monique",
    "street_address": "Keulsebaan 10",
    "postal_code": "5758AB",
    "locality": "Neerkant",
    "region": "Noord-Brabant",
    "latitude": "51.3664288",
    "longitude": "5.8653344"
  },
  {
    "name": "J.C. Cremers",
    "street_address": "Bisschop Paredisstraat 32",
    "postal_code": "5914SC",
    "locality": "Venlo",
    "region": "Limburg",
    "latitude": "51.37745959999999",
    "longitude": "6.1774467"
  },
  {
    "name": "Kapsalon Anke",
    "street_address": "Pieter Ecrevissestraat 12",
    "postal_code": "6136JD",
    "locality": "Sittard",
    "region": "Limburg",
    "latitude": "51.0030268",
    "longitude": "5.8739818"
  },
  {
    "name": "The Style",
    "street_address": "Markt 27",
    "postal_code": "6118BB",
    "locality": "Nieuwstadt",
    "region": "Limburg",
    "latitude": "51.0369258",
    "longitude": "5.8604229"
  },
  {
    "name": "Kapsalon Ine",
    "street_address": "Kelperweg 6",
    "postal_code": "6091NE",
    "locality": "Leveroy",
    "region": "Limburg",
    "latitude": "51.24539919999999",
    "longitude": "5.8182803"
  },
  {
    "name": "Laszlo kappers",
    "street_address": "Bosstraat 64",
    "postal_code": "6101NZ",
    "locality": "Echt",
    "region": "Limburg",
    "latitude": "51.0978614",
    "longitude": "5.8842643"
  },
  {
    "name": "Haarboetiek Huub",
    "street_address": "Molenweg 2",
    "postal_code": "6019BS",
    "locality": "Wessem",
    "region": "Limburg",
    "latitude": "51.1624205",
    "longitude": "5.8820038"
  },
  {
    "name": "Guys & Dolls",
    "street_address": "Bovenstestraat 46",
    "postal_code": "6101EL",
    "locality": "Echt",
    "region": "Limburg",
    "latitude": "51.10377889999999",
    "longitude": "5.8664955"
  },
  {
    "name": "Kapsalon Sedat",
    "street_address": "Zondagstraat 69",
    "postal_code": "6416BE",
    "locality": "Heerlen",
    "region": "Limburg",
    "latitude": "50.8878367",
    "longitude": "5.995828599999999"
  },
  {
    "name": "Loods 12",
    "street_address": "Pastoor Leonardus Canisiusstraat 12",
    "postal_code": "6231JK",
    "locality": "Meerssen",
    "region": "Limburg",
    "latitude": "50.8895344",
    "longitude": "5.7551218"
  },
  {
    "name": "Kapsalon Marja",
    "street_address": "Van Kinsbergenstraat 3",
    "postal_code": "6004ET",
    "locality": "Weert",
    "region": "Limburg",
    "latitude": "51.2530853",
    "longitude": "5.7287985"
  },
  {
    "name": "Haarstudio Melani Heijnemans",
    "street_address": "Maasstraat 2 D",
    "postal_code": "5836BB",
    "locality": "Sambeek",
    "region": "Noord-Brabant",
    "latitude": "51.6370432",
    "longitude": "5.967295099999999"
  },
  {
    "name": "Hairfashion Eygelshoven",
    "street_address": "Kerkraderstraat 3",
    "postal_code": "6471BJ",
    "locality": "Eygelshoven",
    "region": "Limburg",
    "latitude": "50.8900939",
    "longitude": "6.065903"
  },
  {
    "name": "Ymfe",
    "street_address": "Brugstraat 20",
    "postal_code": "6031EG",
    "locality": "Nederweert",
    "region": "Limburg",
    "latitude": "51.2828454",
    "longitude": "5.7531437"
  },
  {
    "name": "Hairtrend",
    "street_address": "Julianalaan 72",
    "postal_code": "6124AJ",
    "locality": "Papenhoven",
    "region": "Limburg",
    "latitude": "51.040746",
    "longitude": "5.7865505"
  },
  {
    "name": "Kapsalon Fokkinga-Sachers",
    "street_address": "Belenweg 23",
    "postal_code": "6447BV",
    "locality": "Merkelbeek",
    "region": "Limburg",
    "latitude": "50.95785979999999",
    "longitude": "5.930065799999999"
  },
  {
    "name": "Reflexkappers",
    "street_address": "Rijksweg 2",
    "postal_code": "6227SV",
    "locality": "Maastricht",
    "region": "Limburg",
    "latitude": "50.8368492",
    "longitude": "5.7259658"
  },
  {
    "name": "Knipmobiel Anita",
    "street_address": "Kerkbosweg 9",
    "postal_code": "5966NP",
    "locality": "America",
    "region": "Limburg",
    "latitude": "51.4388049",
    "longitude": "5.976088"
  },
  {
    "name": "Kapsalon Creative",
    "street_address": "Hoogstraat 127",
    "postal_code": "6373HR",
    "locality": "Landgraaf",
    "region": "Limburg",
    "latitude": "50.9084493",
    "longitude": "6.0294972"
  },
  {
    "name": "Dames- en herenkapsalon Pascall..",
    "street_address": "Bunderstraat 154",
    "postal_code": "6231EM",
    "locality": "Meerssen",
    "region": "Limburg",
    "latitude": "50.8866126",
    "longitude": "5.7457001"
  },
  {
    "name": "Brainwash Panningen",
    "street_address": "Pastoor Huijbenplein 21 A",
    "postal_code": "5981BH",
    "locality": "Panningen",
    "region": "Limburg",
    "latitude": "51.3277191",
    "longitude": "5.9798068"
  },
  {
    "name": "Coiffeur Alpay",
    "street_address": "Kardinaal van Rossumplein 55",
    "postal_code": "6221SX",
    "locality": "Maastricht",
    "region": "Limburg",
    "latitude": "50.8421264",
    "longitude": "5.709196299999999"
  },
  {
    "name": "Kapsalon en Schoonheidssalon Do..",
    "street_address": "Douvenrade 1",
    "postal_code": "6419AA",
    "locality": "Heerlen",
    "region": "Limburg",
    "latitude": "50.8844368",
    "longitude": "5.9691203"
  },
  {
    "name": "Kapsalon Aktuelle",
    "street_address": "Kerkstraat 2 A",
    "postal_code": "5961GD",
    "locality": "Horst",
    "region": "Limburg",
    "latitude": "51.452251",
    "longitude": "6.053289100000001"
  },
  {
    "name": "Hair and Beauty mp",
    "street_address": "Raadhuisstraat 2",
    "postal_code": "6042JL",
    "locality": "Roermond",
    "region": "Limburg",
    "latitude": "51.1992297",
    "longitude": "6.012510300000001"
  },
  {
    "name": "Haarstudio Carla",
    "street_address": "Planetenhof 93",
    "postal_code": "6215TT",
    "locality": "Maastricht",
    "region": "Limburg",
    "latitude": "50.8409505",
    "longitude": "5.6558236"
  },
  {
    "name": "Blond & Co",
    "street_address": "Raadhuisstraat 43",
    "postal_code": "5975BJ",
    "locality": "Sevenum",
    "region": "Limburg",
    "latitude": "51.4110524",
    "longitude": "6.036527899999999"
  },
  {
    "name": "De Kapsalon-Donderberg",
    "street_address": "Kasteel Hornstraat 20",
    "postal_code": "6043JN",
    "locality": "Roermond",
    "region": "Limburg",
    "latitude": "51.1872879",
    "longitude": "6.010003999999999"
  },
  {
    "name": "Kapsalon Ragazza",
    "street_address": "Kapoenstraat 17",
    "postal_code": "6211KV",
    "locality": "Maastricht",
    "region": "Limburg",
    "latitude": "50.8472185",
    "longitude": "5.6899995"
  },
  {
    "name": "Kapsalon Happy Hair",
    "street_address": "Beemdenstraat 25",
    "postal_code": "6004CS",
    "locality": "Weert",
    "region": "Limburg",
    "latitude": "51.2505075",
    "longitude": "5.7342078"
  },
  {
    "name": "Ciseaux Coiffure",
    "street_address": "Emmasingel 91",
    "postal_code": "6001BB",
    "locality": "Weert",
    "region": "Limburg",
    "latitude": "51.2509179",
    "longitude": "5.7070824"
  },
  {
    "name": "Kapsalon Eloutmani",
    "street_address": "Peldenstraat 11",
    "postal_code": "6171XV",
    "locality": "Stein",
    "region": "Limburg",
    "latitude": "50.9625833",
    "longitude": "5.7718966"
  },
  {
    "name": "Haarstudio Innova",
    "street_address": "Zwaluwhof 3",
    "postal_code": "6181KH",
    "locality": "Elsloo",
    "region": "Limburg",
    "latitude": "50.953676",
    "longitude": "5.7689761"
  },
  {
    "name": "Hair taxi Angela",
    "street_address": "Kapelweien 11",
    "postal_code": "6374LW",
    "locality": "Landgraaf",
    "region": "Limburg",
    "latitude": "50.9107306",
    "longitude": "6.0814194"
  },
  {
    "name": "Kapsalon Chantal",
    "street_address": "Stationsstraat 38",
    "postal_code": "6365CK",
    "locality": "Schinnen",
    "region": "Limburg",
    "latitude": "50.9386904",
    "longitude": "5.880972"
  },
  {
    "name": "Kapsalon Wilma",
    "street_address": "Wilhelminastraat 58",
    "postal_code": "6001HE",
    "locality": "Weert",
    "region": "Limburg",
    "latitude": "51.2511879",
    "longitude": "5.702264"
  },
  {
    "name": "Kapsalon E. van Proemeren",
    "street_address": "Valkenburgerweg 3",
    "postal_code": "6265BD",
    "locality": "Sint Geertruid",
    "region": "Limburg",
    "latitude": "50.7974002",
    "longitude": "5.770313199999999"
  },
  {
    "name": "M.J. Spitzner-Weber",
    "street_address": "Olieslagerstraat 18",
    "postal_code": "5975VR",
    "locality": "Sevenum",
    "region": "Limburg",
    "latitude": "51.4060319",
    "longitude": "6.0336713"
  },
  {
    "name": "BrainWash Beek",
    "street_address": "Markt 60",
    "postal_code": "6191JB",
    "locality": "Beek",
    "region": "Limburg",
    "latitude": "50.9404491",
    "longitude": "5.796628399999999"
  },
  {
    "name": "Kapsalon Ilona",
    "street_address": "Roggelseweg 18",
    "postal_code": "6081CT",
    "locality": "Haelen",
    "region": "Limburg",
    "latitude": "51.2366783",
    "longitude": "5.9547327"
  },
  {
    "name": "Kapsalon Topstyling",
    "street_address": "Furenthela 11",
    "postal_code": "6367TL",
    "locality": "Voerendaal",
    "region": "Limburg",
    "latitude": "50.88281550000001",
    "longitude": "5.9271818"
  },
  {
    "name": "PUUR haarmode & make-up",
    "street_address": "Ringovenhof 31",
    "postal_code": "5865BN",
    "locality": "Tienray",
    "region": "Limburg",
    "latitude": "51.4935716",
    "longitude": "6.0932065"
  },
  {
    "name": "Avantgarde Honore et Siegfried",
    "street_address": "Nassaustraat 20",
    "postal_code": "5911BV",
    "locality": "Venlo",
    "region": "Limburg",
    "latitude": "51.3681654",
    "longitude": "6.1720441"
  },
  {
    "name": "Ambulante Kapper Joyce",
    "street_address": "Rijksweg 105",
    "postal_code": "6585AC",
    "locality": "Mook",
    "region": "Limburg",
    "latitude": "51.750944",
    "longitude": "5.8823103"
  },
  {
    "name": "Faces Hair",
    "street_address": "Catharina Daemenstraat 3",
    "postal_code": "6241EJ",
    "locality": "Bunde",
    "region": "Limburg",
    "latitude": "50.89870089999999",
    "longitude": "5.7404208"
  },
  {
    "name": "BrainWash Brunssum",
    "street_address": "Kerkstraat 61 C",
    "postal_code": "6441BB",
    "locality": "Brunssum",
    "region": "Limburg",
    "latitude": "50.9465825",
    "longitude": "5.9717385"
  },
  {
    "name": "New Vision",
    "street_address": "Julianalaan 28",
    "postal_code": "6042JG",
    "locality": "Roermond",
    "region": "Limburg",
    "latitude": "51.1998544",
    "longitude": "6.0084577"
  },
  {
    "name": "Willeke's Hairstyling",
    "street_address": "Laarderweg 47 a",
    "postal_code": "6003NJ",
    "locality": "Weert",
    "region": "Limburg",
    "latitude": "51.2723084",
    "longitude": "5.7057831"
  },
  {
    "name": "Goni Hairstyling",
    "street_address": "Hondsrug 10",
    "postal_code": "6422PV",
    "locality": "Heerlen",
    "region": "Limburg",
    "latitude": "50.84783460000001",
    "longitude": "5.9865511"
  },
  {
    "name": "Haarmode Annet",
    "street_address": "Berkenkamp 1",
    "postal_code": "5851GA",
    "locality": "Afferden",
    "region": "Limburg",
    "latitude": "51.6255621",
    "longitude": "6.0296958"
  },
  {
    "name": "Haarstudio New Image",
    "street_address": "Beekstraat 27 A",
    "postal_code": "6451CA",
    "locality": "Schinveld",
    "region": "Limburg",
    "latitude": "50.96898119999999",
    "longitude": "5.9788961"
  },
  {
    "name": "Kapsalon Resi",
    "street_address": "Monseigneur Kerckhofsstraat 17",
    "postal_code": "6181JC",
    "locality": "Elsloo",
    "region": "Limburg",
    "latitude": "50.9455926",
    "longitude": "5.7669885"
  },
  {
    "name": "Hairs",
    "street_address": "Ganzenweide 29",
    "postal_code": "6171DA",
    "locality": "Stein",
    "region": "Limburg",
    "latitude": "50.9733502",
    "longitude": "5.763724"
  },
  {
    "name": "Gaston Ubachs",
    "street_address": "Maastrichter Heidenstraat 5 B",
    "postal_code": "6211HV",
    "locality": "Maastricht",
    "region": "Limburg",
    "latitude": "50.8484699",
    "longitude": "5.6942258"
  },
  {
    "name": "HairFashion Marjo",
    "street_address": "Sportparklaan 13",
    "postal_code": "6336AA",
    "locality": "Hulsberg",
    "region": "Limburg",
    "latitude": "50.8918189",
    "longitude": "5.8535965"
  },
  {
    "name": "Monie's Hair House",
    "street_address": "Kapellaan 10",
    "postal_code": "6461EH",
    "locality": "Kerkrade",
    "region": "Limburg",
    "latitude": "50.86344279999999",
    "longitude": "6.0595042"
  },
  {
    "name": "Salon Toine",
    "street_address": "Bergkampweg 2",
    "postal_code": "5825AD",
    "locality": "Overloon",
    "region": "Noord-Brabant",
    "latitude": "51.5690902",
    "longitude": "5.9484686"
  },
  {
    "name": "Wijnhoven Coiffeurs",
    "street_address": "Boschstraat 46",
    "postal_code": "6211AX",
    "locality": "Maastricht",
    "region": "Limburg",
    "latitude": "50.854107",
    "longitude": "5.6898249"
  },
  {
    "name": "Angela`s Hairstyle",
    "street_address": "Overstraat 27 A",
    "postal_code": "6151CM",
    "locality": "Munstergeleen",
    "region": "Limburg",
    "latitude": "50.9750857",
    "longitude": "5.8640339"
  },
  {
    "name": "Hairservice Monique",
    "street_address": "Prinsenbaan 183 a",
    "postal_code": "6104BE",
    "locality": "Koningsbosch",
    "region": "Limburg",
    "latitude": "51.0482453",
    "longitude": "5.956001"
  },
  {
    "name": "Salon Capelli",
    "street_address": "Stationsstraat 39",
    "postal_code": "6247BK",
    "locality": "Gronsveld",
    "region": "Limburg",
    "latitude": "50.8102945",
    "longitude": "5.7213026"
  },
  {
    "name": "Kapster en schoonheidsspecialis..",
    "street_address": "Sint Joosterbaan 58",
    "postal_code": "6111AM",
    "locality": "Sint Joost",
    "region": "Limburg",
    "latitude": "51.118458",
    "longitude": "5.896012799999999"
  },
  {
    "name": "De KapSter",
    "street_address": "Kanaalstraat 65 B",
    "postal_code": "5986AD",
    "locality": "Beringe",
    "region": "Limburg",
    "latitude": "51.3372547",
    "longitude": "5.9479296"
  },
  {
    "name": "Hair Company",
    "street_address": "Haalbrugskensweg 18 A",
    "postal_code": "6171JA",
    "locality": "Stein",
    "region": "Limburg",
    "latitude": "50.9693164",
    "longitude": "5.766300999999999"
  },
  {
    "name": "Knipstudio Pascale",
    "street_address": "Houterend 82",
    "postal_code": "6171CT",
    "locality": "Stein",
    "region": "Limburg",
    "latitude": "50.97539889999999",
    "longitude": "5.764457300000001"
  },
  {
    "name": "Benthe Hair and Make-up",
    "street_address": "Bunderstraat 173",
    "postal_code": "6231EJ",
    "locality": "Meerssen",
    "region": "Limburg",
    "latitude": "50.8870108",
    "longitude": "5.7448505"
  },
  {
    "name": "Ubachs Dameskapsalon",
    "street_address": "Volderstraat 21",
    "postal_code": "6231LA",
    "locality": "Meerssen",
    "region": "Limburg",
    "latitude": "50.8846245",
    "longitude": "5.7576068"
  },
  {
    "name": "Hairstyling Margo",
    "street_address": "In de Kweddel 7",
    "postal_code": "6451BS",
    "locality": "Schinveld",
    "region": "Limburg",
    "latitude": "50.97061120000001",
    "longitude": "5.9820937"
  },
  {
    "name": "Knip-Knap Haarmode",
    "street_address": "Op Koye 7",
    "postal_code": "6114AZ",
    "locality": "Susteren",
    "region": "Limburg",
    "latitude": "51.0650701",
    "longitude": "5.8671054"
  },
  {
    "name": "Doevelaar Haarmode",
    "street_address": "Ysselsteynseweg 48",
    "postal_code": "5813BM",
    "locality": "Ysselsteyn",
    "region": "Limburg",
    "latitude": "51.49659010000001",
    "longitude": "5.9208888"
  },
  {
    "name": "De Stadskappers Panningen",
    "street_address": "Markt 93",
    "postal_code": "5981AP",
    "locality": "Panningen",
    "region": "Limburg",
    "latitude": "51.3290271",
    "longitude": "5.9824208"
  },
  {
    "name": "Kapsalon Switch",
    "street_address": "Gielenhofweg 19",
    "postal_code": "5987NA",
    "locality": "Egchel",
    "region": "Limburg",
    "latitude": "51.3149944",
    "longitude": "5.973760899999999"
  },
  {
    "name": "Down Under",
    "street_address": "Den Hoekstraat 16 B",
    "postal_code": "6171VZ",
    "locality": "Stein",
    "region": "Limburg",
    "latitude": "50.9613129",
    "longitude": "5.7673597"
  },
  {
    "name": "Kapsalon-Byouterie-Parfumerie-L..",
    "street_address": "Valderstraat 7",
    "postal_code": "6171EL",
    "locality": "Stein",
    "region": "Limburg",
    "latitude": "50.9699486",
    "longitude": "5.7614806"
  },
  {
    "name": "Kapsalon Bongers",
    "street_address": "Hoofdstraat 35",
    "postal_code": "6051AJ",
    "locality": "Maasbracht",
    "region": "Limburg",
    "latitude": "51.1492319",
    "longitude": "5.8912179"
  },
  {
    "name": "Coiffures Avanti",
    "street_address": "De Pastorij 6",
    "postal_code": "6081AZ",
    "locality": "Haelen",
    "region": "Limburg",
    "latitude": "51.2358178",
    "longitude": "5.957898399999999"
  },
  {
    "name": "Kapsalon Oedjat",
    "street_address": "Van Veldekelaan 2 a",
    "postal_code": "6165EH",
    "locality": "Geleen",
    "region": "Limburg",
    "latitude": "50.9622572",
    "longitude": "5.8340481"
  },
  {
    "name": "C, est la Viv",
    "street_address": "Raadhuisstraat 101",
    "postal_code": "6129CC",
    "locality": "Urmond",
    "region": "Limburg",
    "latitude": "50.9996571",
    "longitude": "5.7698022"
  },
  {
    "name": "Salon Capelli",
    "street_address": "Dorpstraat 118",
    "postal_code": "6093ED",
    "locality": "Heythuysen",
    "region": "Limburg",
    "latitude": "51.2496814",
    "longitude": "5.8997898"
  },
  {
    "name": "Hairstyling Mary-José Austen",
    "street_address": "Kaalheidersteenweg 184",
    "postal_code": "6467AG",
    "locality": "Kerkrade",
    "region": "Limburg",
    "latitude": "50.8647021",
    "longitude": "6.0293104"
  },
  {
    "name": "Haarstudio Angie",
    "street_address": "Vijlenberg 97",
    "postal_code": "6294AS",
    "locality": "Vijlen",
    "region": "Limburg",
    "latitude": "50.786763",
    "longitude": "5.9636979"
  },
  {
    "name": "Kapsalon Heidje",
    "street_address": "Pieter Breughelstraat 45",
    "postal_code": "5854EB",
    "locality": "Bergen",
    "region": "Limburg",
    "latitude": "51.6034502",
    "longitude": "6.0552497"
  },
  {
    "name": "Maison Mare",
    "street_address": "Akerstraat 86",
    "postal_code": "6466HL",
    "locality": "Kerkrade",
    "region": "Limburg",
    "latitude": "50.8586743",
    "longitude": "6.025363899999999"
  },
  {
    "name": "Kapsalon Hallmanns",
    "street_address": "Dorpstraat 37",
    "postal_code": "6095AE",
    "locality": "Baexem",
    "region": "Limburg",
    "latitude": "51.2245674",
    "longitude": "5.8837465"
  },
  {
    "name": "Gogo Kapsalon",
    "street_address": "Pius XII Plein 8 A",
    "postal_code": "6433CZ",
    "locality": "Hoensbroek",
    "region": "Limburg",
    "latitude": "50.915512",
    "longitude": "5.926439999999999"
  },
  {
    "name": "Le Marché",
    "street_address": "Marktstraat 19",
    "postal_code": "6114HP",
    "locality": "Susteren",
    "region": "Limburg",
    "latitude": "51.063512",
    "longitude": "5.8515804"
  },
  {
    "name": "Kapsalon Different Choice",
    "street_address": "Van Ghoorstraat 4",
    "postal_code": "6081BC",
    "locality": "Haelen",
    "region": "Limburg",
    "latitude": "51.2357064",
    "longitude": "5.9549474"
  },
  {
    "name": "Ralph Coiffures",
    "street_address": "Barbarastraat 68",
    "postal_code": "6164HL",
    "locality": "Geleen",
    "region": "Limburg",
    "latitude": "50.9539769",
    "longitude": "5.8308135"
  },
  {
    "name": "Huiskapper Mathy",
    "street_address": "De Klinck 8",
    "postal_code": "6019EK",
    "locality": "Wessem",
    "region": "Limburg",
    "latitude": "51.16308679999999",
    "longitude": "5.875377599999999"
  },
  {
    "name": "Kapsalon Bouten",
    "street_address": "Deken Rölkensstraat 1",
    "postal_code": "5988GG",
    "locality": "Helden",
    "region": "Limburg",
    "latitude": "51.3234479",
    "longitude": "5.9905972"
  },
  {
    "name": "Kapsalon Magda",
    "street_address": "Bredeweg 13",
    "postal_code": "6042GA",
    "locality": "Roermond",
    "region": "Limburg",
    "latitude": "51.2038466",
    "longitude": "6.006565699999999"
  },
  {
    "name": "Hair Done by Robin Bremmers",
    "street_address": "Marktstraat 1 a",
    "postal_code": "6049BA",
    "locality": "Herten",
    "region": "Limburg",
    "latitude": "51.1732106",
    "longitude": "5.957720399999999"
  },
  {
    "name": "hairweave extensions",
    "street_address": "Goethelaan 88",
    "postal_code": "5924BS",
    "locality": "Venlo",
    "region": "Limburg",
    "latitude": "51.3671934",
    "longitude": "6.1283004"
  },
  {
    "name": "Kapsalon Jose",
    "street_address": "Kromstraat 4",
    "postal_code": "6133AB",
    "locality": "Sittard",
    "region": "Limburg",
    "latitude": "50.9927875",
    "longitude": "5.8567961"
  },
  {
    "name": "Meens Dames & Herenkappers",
    "street_address": "Maastrichterlaan 13",
    "postal_code": "6374VL",
    "locality": "Landgraaf",
    "region": "Limburg",
    "latitude": "50.9132676",
    "longitude": "6.0409333"
  },
  {
    "name": "Kapsalon Keras",
    "street_address": "La Fontainestraat 12",
    "postal_code": "5924AZ",
    "locality": "Venlo",
    "region": "Limburg",
    "latitude": "51.3642577",
    "longitude": "6.132931999999999"
  },
  {
    "name": "Nina's",
    "street_address": "Op de Peperkamp 11",
    "postal_code": "5856AP",
    "locality": "Wellerlooi",
    "region": "Limburg",
    "latitude": "51.5362647",
    "longitude": "6.1382941"
  },
  {
    "name": "Les Artistes Kappers",
    "street_address": "Baarskampstraat 3",
    "postal_code": "5995AS",
    "locality": "Kessel",
    "region": "Limburg",
    "latitude": "51.2908147",
    "longitude": "6.0529493"
  },
  {
    "name": "Trend Vision",
    "street_address": "Schuttersstraat 27",
    "postal_code": "6191RZ",
    "locality": "Beek",
    "region": "Limburg",
    "latitude": "50.944623",
    "longitude": "5.7800707"
  },
  {
    "name": "Aan huis knippen met Ellen",
    "street_address": "Steenakker 49",
    "postal_code": "6116CN",
    "locality": "Roosteren",
    "region": "Limburg",
    "latitude": "51.0813931",
    "longitude": "5.819311799999999"
  },
  {
    "name": "Scissors & Co.",
    "street_address": "Scheijmansplein 6",
    "postal_code": "6011PC",
    "locality": "Ell",
    "region": "Limburg",
    "latitude": "51.220584",
    "longitude": "5.7950157"
  },
  {
    "name": "Hairtrend Latice",
    "street_address": "Hovenstraat 93",
    "postal_code": "6374HC",
    "locality": "Landgraaf",
    "region": "Limburg",
    "latitude": "50.91564169999999",
    "longitude": "6.047081299999999"
  },
  {
    "name": "Kapsalon Wendy",
    "street_address": "Kloosterstraat 6",
    "postal_code": "5971BD",
    "locality": "Grubbenvorst",
    "region": "Limburg",
    "latitude": "51.4198043",
    "longitude": "6.1467529"
  },
  {
    "name": "Kapsalon Marian",
    "street_address": "Hogeschoorweg 151",
    "postal_code": "5914CG",
    "locality": "Venlo",
    "region": "Limburg",
    "latitude": "51.3819028",
    "longitude": "6.168797000000001"
  },
  {
    "name": "Haarspecialist Happy Hair",
    "street_address": "Herstraat 8",
    "postal_code": "5961GJ",
    "locality": "Horst",
    "region": "Limburg",
    "latitude": "51.4508008",
    "longitude": "6.052146"
  },
  {
    "name": "Hairpoint Gelissen Munstergelee..",
    "street_address": "Houbeneindstraat 2 C",
    "postal_code": "6151CR",
    "locality": "Munstergeleen",
    "region": "Limburg",
    "latitude": "50.9761242",
    "longitude": "5.8628771"
  },
  {
    "name": "Kapsalon Bianca",
    "street_address": "Rijksweg 3 a",
    "postal_code": "5953AA",
    "locality": "Reuver",
    "region": "Limburg",
    "latitude": "51.2773397",
    "longitude": "6.0754934"
  },
  {
    "name": "Dé Herensalon Men&more",
    "street_address": "Hoofdstraat 1",
    "postal_code": "6436CA",
    "locality": "Amstenrade",
    "region": "Limburg",
    "latitude": "50.93974470000001",
    "longitude": "5.924773999999999"
  },
  {
    "name": "Maurice Hairshop",
    "street_address": "Julianastraat 27",
    "postal_code": "6247CD",
    "locality": "Gronsveld",
    "region": "Limburg",
    "latitude": "50.80715060000001",
    "longitude": "5.7297239"
  },
  {
    "name": "House of Henry's",
    "street_address": "Vastenavondkampstraat 150",
    "postal_code": "5922AX",
    "locality": "Venlo",
    "region": "Limburg",
    "latitude": "51.3745029",
    "longitude": "6.139736099999999"
  },
  {
    "name": "Kapsalon Schlicher",
    "street_address": "Willem II Singel 10-10 A",
    "postal_code": "6041HS",
    "locality": "Roermond",
    "region": "Limburg",
    "latitude": "51.1914835",
    "longitude": "5.991822"
  },
  {
    "name": "Kapsalon Imstra Plaza",
    "street_address": "Parc Imstenrade 66",
    "postal_code": "6418PP",
    "locality": "Heerlen",
    "region": "Limburg",
    "latitude": "50.8648083",
    "longitude": "5.991245"
  },
  {
    "name": "Hairfashion Lizitta",
    "street_address": "Seringenstraat 26",
    "postal_code": "6466XL",
    "locality": "Kerkrade",
    "region": "Limburg",
    "latitude": "50.8646317",
    "longitude": "6.0370791"
  },
  {
    "name": "Kapsalon Enes",
    "street_address": "Parallelweg 71 A",
    "postal_code": "6411NB",
    "locality": "Heerlen",
    "region": "Limburg",
    "latitude": "50.8911093",
    "longitude": "5.9685931"
  },
  {
    "name": "Kapsalon Anique",
    "street_address": "Prins de Lignestraat 19",
    "postal_code": "6161CX",
    "locality": "Geleen",
    "region": "Limburg",
    "latitude": "50.9669236",
    "longitude": "5.825386099999999"
  },
  {
    "name": "Hair & Beauty Care Priti's",
    "street_address": "Vaesraderweg 31",
    "postal_code": "6361JL",
    "locality": "Nuth",
    "region": "Limburg",
    "latitude": "50.9289599",
    "longitude": "5.9023394"
  },
  {
    "name": "Wildgroei",
    "street_address": "Akkerweg 1",
    "postal_code": "5866CM",
    "locality": "Swolgen",
    "region": "Limburg",
    "latitude": "51.4925039",
    "longitude": "6.129117300000001"
  },
  {
    "name": "Coiff'Eusj",
    "street_address": "Groenstraat 10",
    "postal_code": "6162ER",
    "locality": "Geleen",
    "region": "Limburg",
    "latitude": "50.9707601",
    "longitude": "5.8305904"
  },
  {
    "name": "Schiffeleers Haarmode",
    "street_address": "Paardestraat 33",
    "postal_code": "6131HB",
    "locality": "Sittard",
    "region": "Limburg",
    "latitude": "50.998887",
    "longitude": "5.8730122"
  },
  {
    "name": "Haarmode Anne-Marie",
    "street_address": "Hertogenlaan 19",
    "postal_code": "6461BT",
    "locality": "Kerkrade",
    "region": "Limburg",
    "latitude": "50.8693322",
    "longitude": "6.069973999999999"
  },
  {
    "name": "Kapsalon Trends",
    "street_address": "Pastoor Maesplein 9",
    "postal_code": "6034TE",
    "locality": "Nederweert-Eind",
    "region": "Limburg",
    "latitude": "51.2757196",
    "longitude": "5.779929"
  },
  {
    "name": "Hair-Joy",
    "street_address": "De Beente 70 A",
    "postal_code": "6229AV",
    "locality": "Maastricht",
    "region": "Limburg",
    "latitude": "50.83156109999999",
    "longitude": "5.703956499999999"
  },
  {
    "name": "Kapsalon en Haarwerken van den..",
    "street_address": "Zandstraat 4",
    "postal_code": "6591DC",
    "locality": "Gennep",
    "region": "Limburg",
    "latitude": "51.70119020000001",
    "longitude": "5.9693577"
  },
  {
    "name": "De Groesbeekse Knipperij",
    "street_address": "Hoge Horst 10",
    "postal_code": "6562LD",
    "locality": "Groesbeek",
    "region": "Gelderland",
    "latitude": "51.7729001",
    "longitude": "5.9498172"
  },
  {
    "name": "Kazumi Kapsalon",
    "street_address": "Meerssenerweg 273  a",
    "postal_code": "6224AH",
    "locality": "Maastricht",
    "region": "Limburg",
    "latitude": "50.851865",
    "longitude": "5.7065093"
  },
  {
    "name": "M.M.H. Heijmans-Caris",
    "street_address": "Bocholterweg 132",
    "postal_code": "6006TP",
    "locality": "Weert",
    "region": "Limburg",
    "latitude": "51.2191753",
    "longitude": "5.6774324"
  },
  {
    "name": "haarmode zizo",
    "street_address": "Rimburgerweg 8",
    "postal_code": "6443VD",
    "locality": "Brunssum",
    "region": "Limburg",
    "latitude": "50.9409545",
    "longitude": "5.9807444"
  },
  {
    "name": "Salons De Bock",
    "street_address": "Hamstraat 33",
    "postal_code": "6041HA",
    "locality": "Roermond",
    "region": "Limburg",
    "latitude": "51.1935319",
    "longitude": "5.9898881"
  },
  {
    "name": "Kapsalon Natascha",
    "street_address": "Roosterderweg 21",
    "postal_code": "6114KA",
    "locality": "Susteren",
    "region": "Limburg",
    "latitude": "51.0767626",
    "longitude": "5.8408149"
  },
  {
    "name": "Sizo Haarstudio",
    "street_address": "De Hees 74",
    "postal_code": "5976NJ",
    "locality": "Kronenberg",
    "region": "Limburg",
    "latitude": "51.4150855",
    "longitude": "6.0034681"
  },
  {
    "name": "Marleen Gommans",
    "street_address": "Middelreuvelt 22",
    "postal_code": "5971DD",
    "locality": "Grubbenvorst",
    "region": "Limburg",
    "latitude": "51.4179191",
    "longitude": "6.1397501"
  },
  {
    "name": "Kapsalon Lizie",
    "street_address": "Sint Clemensstraat 2",
    "postal_code": "6336BC",
    "locality": "Hulsberg",
    "region": "Limburg",
    "latitude": "50.8905636",
    "longitude": "5.8594675"
  },
  {
    "name": "Beauty Revolution",
    "street_address": "Steenstraat 33",
    "postal_code": "5831JA",
    "locality": "Boxmeer",
    "region": "Noord-Brabant",
    "latitude": "51.6463675",
    "longitude": "5.9538474"
  },
  {
    "name": "haarmode 't Sjeerke",
    "street_address": "Andersonstraat 18",
    "postal_code": "6135JE",
    "locality": "Sittard",
    "region": "Limburg",
    "latitude": "51.0113619",
    "longitude": "5.8491104"
  },
  {
    "name": "Hair-Design",
    "street_address": "Kolkweg 5",
    "postal_code": "5802BJ",
    "locality": "Venray",
    "region": "Limburg",
    "latitude": "51.5261372",
    "longitude": "5.982075699999999"
  },
  {
    "name": "Kapsalon Jansen",
    "street_address": "Graafschap Hornelaan 92 A",
    "postal_code": "6004HS",
    "locality": "Weert",
    "region": "Limburg",
    "latitude": "51.2575162",
    "longitude": "5.7165403"
  },
  {
    "name": "Kapsalon Joli",
    "street_address": "Stiegel 10",
    "postal_code": "6245EV",
    "locality": "Eijsden",
    "region": "Limburg",
    "latitude": "50.7798936",
    "longitude": "5.7038448"
  },
  {
    "name": "Haar & Zo",
    "street_address": "Lindenlaan 18",
    "postal_code": "6301HB",
    "locality": "Valkenburg",
    "region": "Limburg",
    "latitude": "50.865953",
    "longitude": "5.8320153"
  },
  {
    "name": "Kapsalon Marion",
    "street_address": "Tiendstraat 46",
    "postal_code": "6181GK",
    "locality": "Elsloo",
    "region": "Limburg",
    "latitude": "50.9488667",
    "longitude": "5.7638807"
  },
  {
    "name": "Haartuin Echt",
    "street_address": "Jodenstraat 10",
    "postal_code": "6101AS",
    "locality": "Echt",
    "region": "Limburg",
    "latitude": "51.1065947",
    "longitude": "5.868327000000001"
  },
  {
    "name": "Haarstudio Arits",
    "street_address": "Pastoor Greijmansstraat 1",
    "postal_code": "6039GG",
    "locality": "Stramproy",
    "region": "Limburg",
    "latitude": "51.1921229",
    "longitude": "5.7233467"
  },
  {
    "name": "Ellen's Trendy Hair-Expresse",
    "street_address": "Molsberg 37",
    "postal_code": "6369GL",
    "locality": "Simpelveld",
    "region": "Limburg",
    "latitude": "50.8405432",
    "longitude": "5.9868117"
  },
  {
    "name": "Petra's Hair Service",
    "street_address": "Op de Kanijnskamp 14",
    "postal_code": "5856AK",
    "locality": "Wellerlooi",
    "region": "Limburg",
    "latitude": "51.5367505",
    "longitude": "6.1371044"
  },
  {
    "name": "Marion Hairstyling",
    "street_address": "Erkstraat 29",
    "postal_code": "6416HE",
    "locality": "Heerlen",
    "region": "Limburg",
    "latitude": "50.87682299999999",
    "longitude": "5.9919417"
  },
  {
    "name": "Herenkapsalon Koos",
    "street_address": "Onze Lieve Vrouwestraat 24 b",
    "postal_code": "6035AR",
    "locality": "Ospel",
    "region": "Limburg",
    "latitude": "51.2977349",
    "longitude": "5.782096699999999"
  },
  {
    "name": "Cocoon",
    "street_address": "Hamstraat 16",
    "postal_code": "6041HB",
    "locality": "Roermond",
    "region": "Limburg",
    "latitude": "51.1928626",
    "longitude": "5.991082"
  },
  {
    "name": "MENPURITY",
    "street_address": "De Bleek 37",
    "postal_code": "5801MC",
    "locality": "Venray",
    "region": "Limburg",
    "latitude": "51.52572809999999",
    "longitude": "5.974116"
  },
  {
    "name": "Petra's Hairstyling",
    "street_address": "Kerkstraat 81",
    "postal_code": "6031CG",
    "locality": "Nederweert",
    "region": "Limburg",
    "latitude": "51.2866217",
    "longitude": "5.7470101"
  },
  {
    "name": "Trendy Haar",
    "street_address": "Agaat 14",
    "postal_code": "5912SE",
    "locality": "Venlo",
    "region": "Limburg",
    "latitude": "51.35944620000001",
    "longitude": "6.1733588"
  },
  {
    "name": "Kapsalon Alice",
    "street_address": "Koestraat 19",
    "postal_code": "5944BH",
    "locality": "Arcen",
    "region": "Limburg",
    "latitude": "51.4739219",
    "longitude": "6.181294599999999"
  },
  {
    "name": "Geknip veur dich",
    "street_address": "Oranjestraat 14",
    "postal_code": "5913SZ",
    "locality": "Venlo",
    "region": "Limburg",
    "latitude": "51.3629287",
    "longitude": "6.1781141"
  },
  {
    "name": "Karen's Hairstyle 4 All",
    "street_address": "Kouvenderstraat 19",
    "postal_code": "6431HA",
    "locality": "Hoensbroek",
    "region": "Limburg",
    "latitude": "50.9250075",
    "longitude": "5.9276462"
  },
  {
    "name": "De Stadskappers Roermond",
    "street_address": "Kruisherenstraat 8",
    "postal_code": "6041HK",
    "locality": "Roermond",
    "region": "Limburg",
    "latitude": "51.1921419",
    "longitude": "5.991401499999999"
  },
  {
    "name": "Paris",
    "street_address": "Pascherhof 32",
    "postal_code": "5809BW",
    "locality": "Leunen",
    "region": "Limburg",
    "latitude": "51.5125229",
    "longitude": "5.9839045"
  },
  {
    "name": "Haarstudio Mooi Zo",
    "street_address": "Hommerterweg 117",
    "postal_code": "6431ES",
    "locality": "Hoensbroek",
    "region": "Limburg",
    "latitude": "50.9314399",
    "longitude": "5.9284184"
  },
  {
    "name": "Coiffeur Han",
    "street_address": "Passage 10",
    "postal_code": "6441BX",
    "locality": "Brunssum",
    "region": "Limburg",
    "latitude": "50.9448316",
    "longitude": "5.9713464"
  },
  {
    "name": "Coiffure Domestique",
    "street_address": "Volksplein 40 A",
    "postal_code": "6214AN",
    "locality": "Maastricht",
    "region": "Limburg",
    "latitude": "50.8487033",
    "longitude": "5.6763007"
  },
  {
    "name": "Haarmode Anita",
    "street_address": "Maarstraat 28",
    "postal_code": "6467EV",
    "locality": "Kerkrade",
    "region": "Limburg",
    "latitude": "50.8669271",
    "longitude": "6.0219406"
  },
  {
    "name": "Bie Oes Twieje",
    "street_address": "Johan Sebastiaan Bachstraat 24",
    "postal_code": "6245HA",
    "locality": "Eijsden",
    "region": "Limburg",
    "latitude": "50.783068",
    "longitude": "5.7066313"
  },
  {
    "name": "Kapsalon Jan Nellen",
    "street_address": "Kogelstraat 6",
    "postal_code": "5963AP",
    "locality": "Hegelsom",
    "region": "Limburg",
    "latitude": "51.4382157",
    "longitude": "6.0379106"
  },
  {
    "name": "Kapsalon Ineke",
    "street_address": "Hertogstraat 31",
    "postal_code": "6441HA",
    "locality": "Brunssum",
    "region": "Limburg",
    "latitude": "50.9463619",
    "longitude": "5.9601248"
  },
  {
    "name": "Annie's Hair, Health & Beauty",
    "street_address": "Oensel 4",
    "postal_code": "6333EN",
    "locality": "Schimmert",
    "region": "Limburg",
    "latitude": "50.9093925",
    "longitude": "5.8115048"
  },
  {
    "name": "Vero's Hairstyling",
    "street_address": "Veldhofstraat 57 A",
    "postal_code": "6471CD",
    "locality": "Eygelshoven",
    "region": "Limburg",
    "latitude": "50.893376",
    "longitude": "6.061992999999999"
  },
  {
    "name": "Astrid Haarmode",
    "street_address": "Wegedoorn 121",
    "postal_code": "5432EV",
    "locality": "Cuijk",
    "region": "Noord-Brabant",
    "latitude": "51.7346462",
    "longitude": "5.860494699999999"
  },
  {
    "name": "Dameskapsalon Elise",
    "street_address": "Heugemerstraat 223",
    "postal_code": "6229AP",
    "locality": "Maastricht",
    "region": "Limburg",
    "latitude": "50.8301637",
    "longitude": "5.7054372"
  },
  {
    "name": "Kapsalon Gerrits",
    "street_address": "Zwaanstraat 28-36",
    "postal_code": "5431BP",
    "locality": "Cuijk",
    "region": "Noord-Brabant",
    "latitude": "51.7296168",
    "longitude": "5.879129199999999"
  },
  {
    "name": "Dames- en Herenkapsalon Jos Kle..",
    "street_address": "Dalstraat 23",
    "postal_code": "6367JR",
    "locality": "Voerendaal",
    "region": "Limburg",
    "latitude": "50.85277689999999",
    "longitude": "5.954225699999999"
  },
  {
    "name": "Klabbers A.R.M.G.",
    "street_address": "Oude Heerweg 15",
    "postal_code": "5863AC",
    "locality": "Blitterswijck",
    "region": "Limburg",
    "latitude": "51.5295024",
    "longitude": "6.1087793"
  },
  {
    "name": "Raes Kappers",
    "street_address": "Ir de Katstraat 26",
    "postal_code": "6446ST",
    "locality": "Brunssum",
    "region": "Limburg",
    "latitude": "50.93638660000001",
    "longitude": "5.9411517"
  },
  {
    "name": "Hairstyle Thomi",
    "street_address": "Brugstraat 3",
    "postal_code": "6071JB",
    "locality": "Swalmen",
    "region": "Limburg",
    "latitude": "51.2310746",
    "longitude": "6.0361699"
  },
  {
    "name": "Kapsalon Hannan",
    "street_address": "Ruttensingel 158",
    "postal_code": "6214SV",
    "locality": "Maastricht",
    "region": "Limburg",
    "latitude": "50.8443195",
    "longitude": "5.6752085"
  },
  {
    "name": "Maria's Kapsalon",
    "street_address": "Grote Gracht 7",
    "postal_code": "6211SR",
    "locality": "Maastricht",
    "region": "Limburg",
    "latitude": "50.8509972",
    "longitude": "5.6896626"
  },
  {
    "name": "Hairstyle 4 You",
    "street_address": "De Steeg 2",
    "postal_code": "6235AK",
    "locality": "Ulestraten",
    "region": "Limburg",
    "latitude": "50.9043585",
    "longitude": "5.7863105"
  },
  {
    "name": "Coiffure&Zo",
    "street_address": "Sering 22",
    "postal_code": "5432DD",
    "locality": "Cuijk",
    "region": "Noord-Brabant",
    "latitude": "51.7403164",
    "longitude": "5.865332"
  },
  {
    "name": "Ambulante Kapster Petra",
    "street_address": "De Haarhamer 23",
    "postal_code": "6562PS",
    "locality": "Groesbeek",
    "region": "Gelderland",
    "latitude": "51.7706664",
    "longitude": "5.9474828"
  },