[
  {
    "name": "Kapsalon J.A. Kruisweg",
    "street_address": "Fresiastraat 37",
    "postal_code": "8013SM",
    "locality": "Zwolle",
    "region": "Overijssel",
    "latitude": "52.4994559",
    "longitude": "6.1143423"
  },
  {
    "name": "Salon René",
    "street_address": "Sparstraat 22",
    "postal_code": "7572TL",
    "locality": "Oldenzaal",
    "region": "Overijssel",
    "latitude": "52.30892619999999",
    "longitude": "6.922396399999999"
  },
  {
    "name": "Rong Cheng Fa Lang",
    "street_address": "Steenstraat 10",
    "postal_code": "8011TV",
    "locality": "Zwolle",
    "region": "Overijssel",
    "latitude": "52.513231",
    "longitude": "6.091792499999999"
  },
  {
    "name": "Mufide Hair & Art",
    "street_address": "Pastoriestraat 43",
    "postal_code": "7551DJ",
    "locality": "Hengelo",
    "region": "Overijssel",
    "latitude": "52.265682",
    "longitude": "6.789702999999999"
  },
  {
    "name": "Haarmode Maureen",
    "street_address": "Markt 6",
    "postal_code": "7951HR",
    "locality": "Staphorst",
    "region": "Overijssel",
    "latitude": "52.6451359",
    "longitude": "6.2092503"
  },
  {
    "name": "Necla's Hairfashion",
    "street_address": "Breemarsweg 548",
    "postal_code": "7555KH",
    "locality": "Hengelo",
    "region": "Overijssel",
    "latitude": "52.2567371",
    "longitude": "6.764007899999999"
  },
  {
    "name": "Biance, Hair and Nails",
    "street_address": "Kortricklaan 182",
    "postal_code": "8121GV",
    "locality": "Olst",
    "region": "Overijssel",
    "latitude": "52.333413",
    "longitude": "6.1037251"
  },
  {
    "name": "DaDo Hairstyling",
    "street_address": "Van Oldenbarneveltstraat 36",
    "postal_code": "8121ZH",
    "locality": "Olst",
    "region": "Overijssel",
    "latitude": "52.34383219999999",
    "longitude": "6.112214199999999"
  },
  {
    "name": "Tinet Haarmode",
    "street_address": "Veldhoflanden 15-1",
    "postal_code": "7542LA",
    "locality": "Enschede",
    "region": "Overijssel",
    "latitude": "52.1937899",
    "longitude": "6.9012876"
  },
  {
    "name": "Haarstudio Ilse",
    "street_address": "De Wulp 88",
    "postal_code": "7609LL",
    "locality": "Almelo",
    "region": "Overijssel",
    "latitude": "52.33536489999999",
    "longitude": "6.6434149"
  },
  {
    "name": "G.H.J. Eyssen-Blikman",
    "street_address": "Anninksweg 67",
    "postal_code": "7557AE",
    "locality": "Hengelo",
    "region": "Overijssel",
    "latitude": "52.26455550000001",
    "longitude": "6.8055787"
  },
  {
    "name": "Beauty Plaza Madena",
    "street_address": "Noordweg 13",
    "postal_code": "8262BM",
    "locality": "Kampen",
    "region": "Overijssel",
    "latitude": "52.5636872",
    "longitude": "5.907067199999999"
  },
  {
    "name": "D's Hair & Nails",
    "street_address": "Burgemeester Backxlaan 14",
    "postal_code": "7711AG",
    "locality": "Nieuwleusen",
    "region": "Overijssel",
    "latitude": "52.5742347",
    "longitude": "6.2920982"
  },
  {
    "name": "Hair by Carolien",
    "street_address": "Rembrandtlaan 173",
    "postal_code": "7606GL",
    "locality": "Almelo",
    "region": "Overijssel",
    "latitude": "52.34588189999999",
    "longitude": "6.6434063"
  },
  {
    "name": "Kapsalon Doreen",
    "street_address": "Hoofdstraat 80",
    "postal_code": "8375AS",
    "locality": "Oldemarkt",
    "region": "Overijssel",
    "latitude": "52.821663",
    "longitude": "5.9736544"
  },
  {
    "name": "San Haarmode",
    "street_address": "Kon. Julianastraat 35 B",
    "postal_code": "7415GJ",
    "locality": "Deventer",
    "region": "Overijssel",
    "latitude": "52.2688843",
    "longitude": "6.172216199999999"
  },
  {
    "name": "Haar Zuid",
    "street_address": "Mackayware 64",
    "postal_code": "8014RX",
    "locality": "Zwolle",
    "region": "Overijssel",
    "latitude": "52.4771888",
    "longitude": "6.1114717"
  },
  {
    "name": "Kapsalon Luck Heuckeroth",
    "street_address": "Woldstraat 28",
    "postal_code": "7941LK",
    "locality": "Meppel",
    "region": "Drenthe",
    "latitude": "52.6979048",
    "longitude": "6.1922427"
  },
  {
    "name": "Kapsalon Brand",
    "street_address": "Rozengaarde 81",
    "postal_code": "7461DA",
    "locality": "Rijssen",
    "region": "Overijssel",
    "latitude": "52.3065967",
    "longitude": "6.522176300000001"
  },
  {
    "name": "Blur Hairstudio",
    "street_address": "Van Loenshof 34 a",
    "postal_code": "7511HH",
    "locality": "Enschede",
    "region": "Overijssel",
    "latitude": "52.218726",
    "longitude": "6.8947272"
  },
  {
    "name": "De Kapperij",
    "street_address": "Weerselosestraat 302",
    "postal_code": "7626LJ",
    "locality": "Hertme",
    "region": "Overijssel",
    "latitude": "52.3140838",
    "longitude": "6.768044199999999"
  },
  {
    "name": "Kapsalon Bosgoed",
    "street_address": "Duistervoordseweg 12 D",
    "postal_code": "7391CD",
    "locality": "Twello",
    "region": "Gelderland",
    "latitude": "52.2366596",
    "longitude": "6.1021408"
  },
  {
    "name": "Hairstyling Thea",
    "street_address": "Koningsspil 32",
    "postal_code": "8102DL",
    "locality": "Raalte",
    "region": "Overijssel",
    "latitude": "52.38521650000001",
    "longitude": "6.2811536"
  },
  {
    "name": "Kapsalon Ineke",
    "street_address": "Wesseler-Nering 39",
    "postal_code": "7544JC",
    "locality": "Enschede",
    "region": "Overijssel",
    "latitude": "52.19134099999999",
    "longitude": "6.8801834"
  },
  {
    "name": "Kapsalon Smid",
    "street_address": "Markt 66",
    "postal_code": "8331HK",
    "locality": "Steenwijk",
    "region": "Overijssel",
    "latitude": "52.7865106",
    "longitude": "6.116996299999999"
  },
  {
    "name": "Goossen Haarmode",
    "street_address": "Nijverdalsestraat 6",
    "postal_code": "7642AD",
    "locality": "Wierden",
    "region": "Overijssel",
    "latitude": "52.35818070000001",
    "longitude": "6.5916827"
  },
  {
    "name": "New Image Kapsalon en Zonnestud..",
    "street_address": "Turfstekersplein 5",
    "postal_code": "7782NZ",
    "locality": "De Krim",
    "region": "Overijssel",
    "latitude": "52.6505872",
    "longitude": "6.6173653"
  },
  {
    "name": "Kapsalon Creativo",
    "street_address": "Olde Meinenbos 7",
    "postal_code": "8338SH",
    "locality": "Willemsoord",
    "region": "Overijssel",
    "latitude": "52.822004",
    "longitude": "6.056496"
  },
  {
    "name": "Tendy's Hairstyling",
    "street_address": "Hellendoornseweg 25",
    "postal_code": "7688PC",
    "locality": "Daarle",
    "region": "Overijssel",
    "latitude": "52.4267769",
    "longitude": "6.5054807"
  },
  {
    "name": "Kreatos Kappers",
    "street_address": "Grotestraat 141",
    "postal_code": "7622GD",
    "locality": "Borne",
    "region": "Overijssel",
    "latitude": "52.2987912",
    "longitude": "6.7594122"
  },
  {
    "name": "Blanc. Hair & make-up artists",
    "street_address": "Deurningerstraat 4 a",
    "postal_code": "7571BC",
    "locality": "Oldenzaal",
    "region": "Overijssel",
    "latitude": "52.3123229",
    "longitude": "6.9273244"
  },
  {
    "name": "Kapsalon Jan Hofstede",
    "street_address": "Jufferenwal 25 A",
    "postal_code": "8011LE",
    "locality": "Zwolle",
    "region": "Overijssel",
    "latitude": "52.5121262",
    "longitude": "6.0886372"
  },
  {
    "name": "Marc Hairstyling",
    "street_address": "Winterbed 15",
    "postal_code": "8266LA",
    "locality": "Kampen",
    "region": "Overijssel",
    "latitude": "52.5326922",
    "longitude": "5.9271163"
  },
  {
    "name": "Quality el Haarstudio",
    "street_address": "Julianastraat 66 A",
    "postal_code": "7701GN",
    "locality": "Dedemsvaart",
    "region": "Overijssel",
    "latitude": "52.603396",
    "longitude": "6.4574231"
  },
  {
    "name": "Kapsalon Lilian",
    "street_address": "Hinvertsweg 1",
    "postal_code": "7665AW",
    "locality": "Albergen",
    "region": "Overijssel",
    "latitude": "52.3704674",
    "longitude": "6.761341199999999"
  },
  {
    "name": "Erol & Rustem Herenkapsalon",
    "street_address": "Rielerweg 50",
    "postal_code": "7416ZH",
    "locality": "Deventer",
    "region": "Overijssel",
    "latitude": "52.2571412",
    "longitude": "6.168845300000001"
  },
  {
    "name": "Sharons Haarstudio De Lutte",
    "street_address": "Bentheimerstraat 41",
    "postal_code": "7587NE",
    "locality": "De Lutte",
    "region": "Overijssel",
    "latitude": "52.3191326",
    "longitude": "6.9827952"
  },
  {
    "name": "Janine's Hairstudio",
    "street_address": "Hoopsteeweg 56",
    "postal_code": "7695SL",
    "locality": "Bruchterveld",
    "region": "Overijssel",
    "latitude": "52.532999",
    "longitude": "6.6496508"
  },
  {
    "name": "De Kapper Hair & Lifestyle",
    "street_address": "Vrijthof 1",
    "postal_code": "7731CN",
    "locality": "Ommen",
    "region": "Overijssel",
    "latitude": "52.5191032",
    "longitude": "6.4243212"
  },
  {
    "name": "Kapsalon G.J.P. Oude Bruinink",
    "street_address": "Burgemeester van Veenlaan 256 A",
    "postal_code": "7543AD",
    "locality": "Enschede",
    "region": "Overijssel",
    "latitude": "52.20317739999999",
    "longitude": "6.8796583"
  },
  {
    "name": "Hairstudio Anja  i.o.",
    "street_address": "Grotestraat 140 b",
    "postal_code": "7443BN",
    "locality": "Nijverdal",
    "region": "Overijssel",
    "latitude": "52.365438",
    "longitude": "6.4641278"
  },
  {
    "name": "Marjan's Kniphuus",
    "street_address": "Verlengde Broekdijk 45",
    "postal_code": "7694TE",
    "locality": "Kloosterhaar",
    "region": "Overijssel",
    "latitude": "52.5261966",
    "longitude": "6.692679399999999"
  },
  {
    "name": "Jan IJzerman Coiffure",
    "street_address": "Spijkerboorsteeg 2",
    "postal_code": "7411JG",
    "locality": "Deventer",
    "region": "Overijssel",
    "latitude": "52.25226019999999",
    "longitude": "6.1585858"
  },
  {
    "name": "Salon Chez Nicole",
    "street_address": "Grotestraat 6",
    "postal_code": "7591DL",
    "locality": "Denekamp",
    "region": "Overijssel",
    "latitude": "52.3751482",
    "longitude": "7.0047042"
  },
  {
    "name": "Infinity Hairsalon",
    "street_address": "Grotestraat 185 a",
    "postal_code": "7607CL",
    "locality": "Almelo",
    "region": "Overijssel",
    "latitude": "52.3527181",
    "longitude": "6.6648033"
  },
  {
    "name": "Paletti Creative Hair",
    "street_address": "Boterstraat 18",
    "postal_code": "7571EB",
    "locality": "Oldenzaal",
    "region": "Overijssel",
    "latitude": "52.3137858",
    "longitude": "6.927595699999999"
  },
  {
    "name": "Michelle's Haarmode",
    "street_address": "Mentinksweg 15",
    "postal_code": "7482NT",
    "locality": "Haaksbergen",
    "region": "Overijssel",
    "latitude": "52.1506427",
    "longitude": "6.673012399999999"
  },
  {
    "name": "BrainWash Enschede",
    "street_address": "Noorderhagen 69",
    "postal_code": "7511EK",
    "locality": "Enschede",
    "region": "Overijssel",
    "latitude": "52.2216867",
    "longitude": "6.8972864"
  },
  {
    "name": "Tokkie's Knipout",
    "street_address": "Basserweg 8",
    "postal_code": "8342TD",
    "locality": "Basse",
    "region": "Overijssel",
    "latitude": "52.8038398",
    "longitude": "6.0387811"
  },
  {
    "name": "Kim's Hairfashion aan Huis",
    "street_address": "Heerweg 25",
    "postal_code": "8334RK",
    "locality": "Tuk",
    "region": "Overijssel",
    "latitude": "52.7964311",
    "longitude": "6.0987632"
  },
  {
    "name": "Ingrid's Hair Style",
    "street_address": "De Kamphof 29",
    "postal_code": "7772EG",
    "locality": "Hardenberg",
    "region": "Overijssel",
    "latitude": "52.5839815",
    "longitude": "6.6427153"
  },
  {
    "name": "Dameskapsalon Conny",
    "street_address": "Putmanstraat 37",
    "postal_code": "7415TM",
    "locality": "Deventer",
    "region": "Overijssel",
    "latitude": "52.2665191",
    "longitude": "6.1630297"
  },
  {
    "name": "Haarmode Viola",
    "street_address": "Windmolenbroeksweg 11",
    "postal_code": "7606JK",
    "locality": "Almelo",
    "region": "Overijssel",
    "latitude": "52.346591",
    "longitude": "6.642947899999999"
  },
  {
    "name": "Kapsalon Jolanda",
    "street_address": "Assinkskloosterweg 29",
    "postal_code": "7525PK",
    "locality": "Enschede",
    "region": "Overijssel",
    "latitude": "52.25964519999999",
    "longitude": "6.945935800000001"
  },
  {
    "name": "Haar & Co.",
    "street_address": "Brinkgreverweg 112",
    "postal_code": "7413AE",
    "locality": "Deventer",
    "region": "Overijssel",
    "latitude": "52.2584169",
    "longitude": "6.1671059"
  },
  {
    "name": "Bas-Kappers",
    "street_address": "Twekkelerweg 176",
    "postal_code": "7553LR",
    "locality": "Hengelo",
    "region": "Overijssel",
    "latitude": "52.2528933",
    "longitude": "6.8010034"
  },
  {
    "name": "ICI Louise",
    "street_address": "Nagelstraat 17",
    "postal_code": "7571AJ",
    "locality": "Oldenzaal",
    "region": "Overijssel",
    "latitude": "52.3142848",
    "longitude": "6.925551800000001"
  },
  {
    "name": "The Look By Richard Weijs",
    "street_address": "Tabaksgaarden 38",
    "postal_code": "7462VM",
    "locality": "Rijssen",
    "region": "Overijssel",
    "latitude": "52.3049847",
    "longitude": "6.517809499999999"
  },
  {
    "name": "Dameskapsalon Ingrid",
    "street_address": "Berkenschakel 32",
    "postal_code": "7437DG",
    "locality": "Bathmen",
    "region": "Overijssel",
    "latitude": "52.2493596",
    "longitude": "6.277749099999999"
  },
  {
    "name": "Roelien Hair & Beauty",
    "street_address": "Julianaplein 6",
    "postal_code": "7681AW",
    "locality": "Vroomshoop",
    "region": "Overijssel",
    "latitude": "52.4606934",
    "longitude": "6.5716717"
  },
  {
    "name": "Ceje's Haarboetiek voor Hem en..",
    "street_address": "Hessenweg 13",
    "postal_code": "7771CH",
    "locality": "Hardenberg",
    "region": "Overijssel",
    "latitude": "52.574077",
    "longitude": "6.6051765"
  },
  {
    "name": "Classic Kappers",
    "street_address": "Grote Overstraat 71",
    "postal_code": "7411JB",
    "locality": "Deventer",
    "region": "Overijssel",
    "latitude": "52.2521526",
    "longitude": "6.159585000000001"
  },
  {
    "name": "Kapsalon Tineke",
    "street_address": "Steenwijkerweg 252",
    "postal_code": "8335LJ",
    "locality": "Witte Paarden",
    "region": "Overijssel",
    "latitude": "52.80650439999999",
    "longitude": "6.0811904"
  },
  {
    "name": "Kuypers Haarmode",
    "street_address": "Esmarkelaan 2",
    "postal_code": "7534JH",
    "locality": "Enschede",
    "region": "Overijssel",
    "latitude": "52.216157",
    "longitude": "6.9507444"
  },
  {
    "name": "Kinki Kappers Enschede",
    "street_address": "Korte Hengelosestraat 6",
    "postal_code": "7511JB",
    "locality": "Enschede",
    "region": "Overijssel",
    "latitude": "52.2214232",
    "longitude": "6.893143599999999"
  },
  {
    "name": "Ff anders door Marleen",
    "street_address": "Rijssenseweg 34 b",
    "postal_code": "7468AD",
    "locality": "Enter",
    "region": "Overijssel",
    "latitude": "52.29338680000001",
    "longitude": "6.5704345"
  },
  {
    "name": "Monique Haar & Make-up",
    "street_address": "Ootmarsumsestraat 12",
    "postal_code": "7607BC",
    "locality": "Almelo",
    "region": "Overijssel",
    "latitude": "52.3600405",
    "longitude": "6.6675982"
  },
  {
    "name": "Drent Kappers",
    "street_address": "Oranjestraat 2",
    "postal_code": "7451CC",
    "locality": "Holten",
    "region": "Overijssel",
    "latitude": "52.2812893",
    "longitude": "6.423217699999999"
  },
  {
    "name": "Yu & Mi Hairstyling Make-Up",
    "street_address": "Thijplein 2",
    "postal_code": "7596KM",
    "locality": "Rossum",
    "region": "Overijssel",
    "latitude": "52.3524523",
    "longitude": "6.9232239"
  },
  {
    "name": "Kapsalon Erwie",
    "street_address": "Prinsenplein 27",
    "postal_code": "7941KV",
    "locality": "Meppel",
    "region": "Drenthe",
    "latitude": "52.696859",
    "longitude": "6.1932581"
  },
  {
    "name": "Jacqueline's Haarmode",
    "street_address": "Bosweg 17",
    "postal_code": "7973KZ",
    "locality": "Darp",
    "region": "Drenthe",
    "latitude": "52.7742392",
    "longitude": "6.2040313"
  },
  {
    "name": "Rob Kijk in de Vegt Haarmode",
    "street_address": "Vechtstraat 46",
    "postal_code": "8021AX",
    "locality": "Zwolle",
    "region": "Overijssel",
    "latitude": "52.5155548",
    "longitude": "6.105943"
  },
  {
    "name": "S. Tijhaar Haarmode H.O. Team K..",
    "street_address": "Constantijnstraat 21",
    "postal_code": "7442MC",
    "locality": "Nijverdal",
    "region": "Overijssel",
    "latitude": "52.36314789999999",
    "longitude": "6.4619433"
  },
  {
    "name": "De Hoofdzaak",
    "street_address": "Rijssensestraat 84",
    "postal_code": "7442ML",
    "locality": "Nijverdal",
    "region": "Overijssel",
    "latitude": "52.3612399",
    "longitude": "6.4605871"
  },
  {
    "name": "Salon Rola Hair & Beauty",
    "street_address": "Johanna van Burenlaan 202",
    "postal_code": "7576AW",
    "locality": "Oldenzaal",
    "region": "Overijssel",
    "latitude": "52.3147266",
    "longitude": "6.9061989"
  },
  {
    "name": "In2Hair Tubbergen",
    "street_address": "Grotestraat 24",
    "postal_code": "7651CJ",
    "locality": "Tubbergen",
    "region": "Overijssel",
    "latitude": "52.4056974",
    "longitude": "6.7821168"
  },
  {
    "name": "Kapsalon Kupers",
    "street_address": "Beckumerstraat 5",
    "postal_code": "7548BD",
    "locality": "Enschede",
    "region": "Overijssel",
    "latitude": "52.20383409999999",
    "longitude": "6.7991761"
  },
  {
    "name": "Trijnie's Kapsalon",
    "street_address": "Zuiderstraat 10",
    "postal_code": "8356EA",
    "locality": "Blokzijl",
    "region": "Overijssel",
    "latitude": "52.7260173",
    "longitude": "5.961021"
  },
  {
    "name": "Kapsalon Pascale",
    "street_address": "Slagenkampweg 9",
    "postal_code": "7731TK",
    "locality": "Ommen",
    "region": "Overijssel",
    "latitude": "52.52807600000001",
    "longitude": "6.4321953"
  },
  {
    "name": "Maison Yvette",
    "street_address": "Mariënburghplein 1",
    "postal_code": "7415BR",
    "locality": "Deventer",
    "region": "Overijssel",
    "latitude": "52.2668084",
    "longitude": "6.1577796"
  },
  {
    "name": "Salon Benny Coiffures",
    "street_address": "Hogepad 6 A",
    "postal_code": "7462WK",
    "locality": "Rijssen",
    "region": "Overijssel",
    "latitude": "52.3074469",
    "longitude": "6.5171413"
  },
  {
    "name": "Bellehair",
    "street_address": "Fien de la Marstraat 49",
    "postal_code": "7558MC",
    "locality": "Hengelo",
    "region": "Overijssel",
    "latitude": "52.2886271",
    "longitude": "6.8324517"
  },
  {
    "name": "Kapsalon Viester",
    "street_address": "Pastoorsdijk 7",
    "postal_code": "7433DK",
    "locality": "Schalkhaar",
    "region": "Overijssel",
    "latitude": "52.267919",
    "longitude": "6.1925743"
  },
  {
    "name": "Knip & Smile",
    "street_address": "Beitelstraat 8",
    "postal_code": "7556NB",
    "locality": "Hengelo",
    "region": "Overijssel",
    "latitude": "52.2809679",
    "longitude": "6.8083154"
  },
  {
    "name": "Hairpoint",
    "street_address": "Nieuwendijk 9",
    "postal_code": "8131CD",
    "locality": "Wijhe",
    "region": "Overijssel",
    "latitude": "52.3894718",
    "longitude": "6.134621099999999"
  },
  {
    "name": "Kapsalon Anhoes",
    "street_address": "Margrietstraat 18",
    "postal_code": "7561CR",
    "locality": "Deurningen",
    "region": "Overijssel",
    "latitude": "52.3000363",
    "longitude": "6.836941599999999"
  },
  {
    "name": "Kapsalon Westenberg",
    "street_address": "Brink 4",
    "postal_code": "8021AP",
    "locality": "Zwolle",
    "region": "Overijssel",
    "latitude": "52.5151207",
    "longitude": "6.1033735"
  },
  {
    "name": "Kapsalon Johanneke",
    "street_address": "Knalhutteweg 297 A",
    "postal_code": "7542PB",
    "locality": "Enschede",
    "region": "Overijssel",
    "latitude": "52.1856865",
    "longitude": "6.9111448"
  },
  {
    "name": "M.H.H. van Dam-Hageman",
    "street_address": "Torenvalk 25",
    "postal_code": "8103GJ",
    "locality": "Raalte",
    "region": "Overijssel",
    "latitude": "52.3975537",
    "longitude": "6.2887051"
  },
  {
    "name": "Haar- en Zonnestudio Brenda",
    "street_address": "G.J. van Heekstraat 106",
    "postal_code": "7521EH",
    "locality": "Enschede",
    "region": "Overijssel",
    "latitude": "52.2275821",
    "longitude": "6.8690291"
  },
  {
    "name": "Haarstudio 053",
    "street_address": "Sniedershorst 82",
    "postal_code": "7531KP",
    "locality": "Enschede",
    "region": "Overijssel",
    "latitude": "52.2311942",
    "longitude": "6.9233017"
  },
  {
    "name": "Kapsalon Elda",
    "street_address": "Nicolaas Beetsstraat 18",
    "postal_code": "7552HZ",
    "locality": "Hengelo",
    "region": "Overijssel",
    "latitude": "52.2584094",
    "longitude": "6.8228729"
  },
  {
    "name": "Kapsalon Beerlage",
    "street_address": "Oldenzaalsestraat 235",
    "postal_code": "7557GL",
    "locality": "Hengelo",
    "region": "Overijssel",
    "latitude": "52.2709916",
    "longitude": "6.807258999999999"
  },
  {
    "name": "`t Kappershuuske",
    "street_address": "Bornsestraat 290",
    "postal_code": "7556BN",
    "locality": "Hengelo",
    "region": "Overijssel",
    "latitude": "52.2862338",
    "longitude": "6.774405"
  },
  {
    "name": "Kapsalon Irene",
    "street_address": "Veenstraat 105",
    "postal_code": "7676AZ",
    "locality": "Westerhaar-Vriezenveensewijk",
    "region": "Overijssel",
    "latitude": "52.4545308",
    "longitude": "6.624987699999999"
  },
  {
    "name": "Coupe di Capelli",
    "street_address": "Zwolseweg 52",
    "postal_code": "7412AN",
    "locality": "Deventer",
    "region": "Overijssel",
    "latitude": "52.2595569",
    "longitude": "6.1485278"
  },
  {
    "name": "Diabolo Haarmode",
    "street_address": "Holterweg 3 B",
    "postal_code": "7475AT",
    "locality": "Markelo",
    "region": "Overijssel",
    "latitude": "52.2365286",
    "longitude": "6.4903565"
  },
  {
    "name": "Kapsalon Mus’ab",
    "street_address": "Oudestraat 97",
    "postal_code": "8261CJ",
    "locality": "Kampen",
    "region": "Overijssel",
    "latitude": "52.5578115",
    "longitude": "5.9176179"
  },
  {
    "name": "Janny Uw Kapster aan Huis",
    "street_address": "Nikkelsweg 6",
    "postal_code": "7675TE",
    "locality": "Bruinehaar",
    "region": "Overijssel",
    "latitude": "52.4691896",
    "longitude": "6.7067437"
  },
  {
    "name": "Raby Hairfashion",
    "street_address": "Oogstplein 30",
    "postal_code": "7545HP",
    "locality": "Enschede",
    "region": "Overijssel",
    "latitude": "52.21232089999999",
    "longitude": "6.865258099999999"
  },
  {
    "name": "Qnip it Hair Design",
    "street_address": "Floraparkstraat 97-100",
    "postal_code": "7531XJ",
    "locality": "Enschede",
    "region": "Overijssel",
    "latitude": "52.23017900000001",
    "longitude": "6.9142487"
  },
  {
    "name": "Kappersbedrijf J.T.M. Doevelaar",
    "street_address": "Weeshuisstraat 24",
    "postal_code": "7741GP",
    "locality": "Coevorden",
    "region": "Drenthe",
    "latitude": "52.6627245",
    "longitude": "6.739785899999999"
  },
  {
    "name": "N.I.D. Fischer",
    "street_address": "Smedenstraat 86",
    "postal_code": "7411RG",
    "locality": "Deventer",
    "region": "Overijssel",
    "latitude": "52.2555049",
    "longitude": "6.1566017"
  },
  {
    "name": "Kapsalon De Gouden Tulp",
    "street_address": "Dorpsstraat 37",
    "postal_code": "8111AC",
    "locality": "Heeten",
    "region": "Overijssel",
    "latitude": "52.33090809999999",
    "longitude": "6.2829815"
  },
  {
    "name": "Kapsalon Huub",
    "street_address": "Molenstraat 7",
    "postal_code": "7651AS",
    "locality": "Tubbergen",
    "region": "Overijssel",
    "latitude": "52.4055891",
    "longitude": "6.782357699999999"
  },
  {
    "name": "De Mobiele Kappersstoel",
    "street_address": "Bornsedijk 60 a",
    "postal_code": "7576PG",
    "locality": "Oldenzaal",
    "region": "Overijssel",
    "latitude": "52.3077177",
    "longitude": "6.9060031"
  },
  {
    "name": "Haarmode Angelique",
    "street_address": "Distelhoeve 9",
    "postal_code": "8052AT",
    "locality": "Hattem",
    "region": "Gelderland",
    "latitude": "52.4798323",
    "longitude": "6.0514416"
  },
  {
    "name": "Kapsalon 't Kniphuus",
    "street_address": "Henric de Cranestraat 7",
    "postal_code": "8374KK",
    "locality": "Kuinre",
    "region": "Overijssel",
    "latitude": "52.7875508",
    "longitude": "5.8401127"
  },
  {
    "name": "Young Beauty Hairsalon",
    "street_address": "Otto Klempererstraat 109",
    "postal_code": "7558EN",
    "locality": "Hengelo",
    "region": "Overijssel",
    "latitude": "52.28468549999999",
    "longitude": "6.8331952"
  },
  {
    "name": "Cellarius haarmode",
    "street_address": "Ossenweerdstraat 1",
    "postal_code": "7412BH",
    "locality": "Deventer",
    "region": "Overijssel",
    "latitude": "52.25787589999999",
    "longitude": "6.148572199999999"
  },
  {
    "name": "Sonja's Haircare",
    "street_address": "Koolmeesstraat 8",
    "postal_code": "7731XK",
    "locality": "Ommen",
    "region": "Overijssel",
    "latitude": "52.5266527",
    "longitude": "6.4171451"
  },
  {
    "name": "Salon Karolien",
    "street_address": "Letterveldweg 75",
    "postal_code": "7621CB",
    "locality": "Borne",
    "region": "Overijssel",
    "latitude": "52.29605",
    "longitude": "6.7435"
  },
  {
    "name": "Hairstyle Marleen",
    "street_address": "Het Vonder 1",
    "postal_code": "8107BK",
    "locality": "Broekland",
    "region": "Overijssel",
    "latitude": "52.3594018",
    "longitude": "6.200316099999999"
  },
  {
    "name": "Salon Wim",
    "street_address": "In Den Vijfhoek 3",
    "postal_code": "7571DT",
    "locality": "Oldenzaal",
    "region": "Overijssel",
    "latitude": "52.3130501",
    "longitude": "6.926015"
  },
  {
    "name": "Salon Hetty",
    "street_address": "Oude Weerseloseweg 13",
    "postal_code": "7577PV",
    "locality": "Oldenzaal",
    "region": "Overijssel",
    "latitude": "52.3235957",
    "longitude": "6.9034929"
  },
  {
    "name": "ERNA",
    "street_address": "Hoefslag 5",
    "postal_code": "7213BV",
    "locality": "Gorssel",
    "region": "Gelderland",
    "latitude": "52.19813990000001",
    "longitude": "6.2076841"
  },
  {
    "name": "Kapsalon Avenue",
    "street_address": "Deurningerstraat 59",
    "postal_code": "7514BD",
    "locality": "Enschede",
    "region": "Overijssel",
    "latitude": "52.2257319",
    "longitude": "6.890938999999999"
  },
  {
    "name": "Mariet's Hairfashion",
    "street_address": "Beatrixstraat 29 A",
    "postal_code": "7482CS",
    "locality": "Haaksbergen",
    "region": "Overijssel",
    "latitude": "52.1591789",
    "longitude": "6.7309801"
  },
  {
    "name": "Haarstudio Jeannet",
    "street_address": "Bornerbroeksestraat 17",
    "postal_code": "7607KD",
    "locality": "Almelo",
    "region": "Overijssel",
    "latitude": "52.3514337",
    "longitude": "6.664431100000001"
  },
  {
    "name": "Coco Hairstudio & Deco",
    "street_address": "Boddenstraat 46",
    "postal_code": "7607BN",
    "locality": "Almelo",
    "region": "Overijssel",
    "latitude": "52.3593791",
    "longitude": "6.662762499999999"
  },
  {
    "name": "Kapgemak",
    "street_address": "Oostercluft 101",
    "postal_code": "8332DC",
    "locality": "Steenwijk",
    "region": "Overijssel",
    "latitude": "52.7944075",
    "longitude": "6.134814299999999"
  },
  {
    "name": "Way 4 Hair",
    "street_address": "Het Bijvank 89 A",
    "postal_code": "7544DA",
    "locality": "Enschede",
    "region": "Overijssel",
    "latitude": "52.19532969999999",
    "longitude": "6.8754021"
  },
  {
    "name": "Haarsalon Katrien",
    "street_address": "Mosven 14",
    "postal_code": "7534NJ",
    "locality": "Enschede",
    "region": "Overijssel",
    "latitude": "52.2076439",
    "longitude": "6.9647618"
  },
  {
    "name": "Hair 4 You",
    "street_address": "Engelenbergplantsoen 3",
    "postal_code": "8266AB",
    "locality": "Kampen",
    "region": "Overijssel",
    "latitude": "52.5510704",
    "longitude": "5.9209103"
  },
  {
    "name": "Kapsalon Friends",
    "street_address": "Van Eijbergenstraat 2",
    "postal_code": "7741EM",
    "locality": "Coevorden",
    "region": "Drenthe",
    "latitude": "52.6647232",
    "longitude": "6.7368405"
  },
  {
    "name": "Het Kappershuys",
    "street_address": "Achterhoekse Molenweg 24",
    "postal_code": "7556GL",
    "locality": "Hengelo",
    "region": "Overijssel",
    "latitude": "52.2763017",
    "longitude": "6.7835177"
  },
  {
    "name": "Budget Hair",
    "street_address": "Nieuwstraat 70",
    "postal_code": "7605AG",
    "locality": "Almelo",
    "region": "Overijssel",
    "latitude": "52.3500769",
    "longitude": "6.6563165"
  },
  {
    "name": "José Hairstyling",
    "street_address": "Doornstukke 10",
    "postal_code": "7641SE",
    "locality": "Wierden",
    "region": "Overijssel",
    "latitude": "52.3655555",
    "longitude": "6.5802594"
  },
  {
    "name": "Kapsalon Monica",
    "street_address": "Het Kemerink 33",
    "postal_code": "7497MN",
    "locality": "Bentelo",
    "region": "Overijssel",
    "latitude": "52.2219926",
    "longitude": "6.684849199999999"
  },
  {
    "name": "Hartman Haarmode",
    "street_address": "Boekeloseweg 63",
    "postal_code": "7553DK",
    "locality": "Hengelo",
    "region": "Overijssel",
    "latitude": "52.2544707",
    "longitude": "6.7878124"
  },
  {
    "name": "Pico Bello",
    "street_address": "Thomas à Kempisstraat 68",
    "postal_code": "8021BE",
    "locality": "Zwolle",
    "region": "Overijssel",
    "latitude": "52.5162401",
    "longitude": "6.105793299999999"
  },
  {
    "name": "Dames en Herenkapsalon Tiny en..",
    "street_address": "Moerheimstraat 34",
    "postal_code": "7701CE",
    "locality": "Dedemsvaart",
    "region": "Overijssel",
    "latitude": "52.6003148",
    "longitude": "6.4610255"
  },
  {
    "name": "Hairdesign",
    "street_address": "Munnikenhof 12",
    "postal_code": "8141GL",
    "locality": "Heino",
    "region": "Overijssel",
    "latitude": "52.4361004",
    "longitude": "6.2330193"
  },
  {
    "name": "Salon Edwin",
    "street_address": "Marktstraat 14",
    "postal_code": "7551DT",
    "locality": "Hengelo",
    "region": "Overijssel",
    "latitude": "52.264979",
    "longitude": "6.79183"
  },
  {
    "name": "Cutting edge Hengelo",
    "street_address": "Nieuwstraat 42",
    "postal_code": "7551CZ",
    "locality": "Hengelo",
    "region": "Overijssel",
    "latitude": "52.2629935",
    "longitude": "6.7931155"
  },
  {
    "name": "Kapsalon Hillie",
    "street_address": "Witmanweg 28",
    "postal_code": "7776SH",
    "locality": "Slagharen",
    "region": "Overijssel",
    "latitude": "52.6276225",
    "longitude": "6.543106499999999"
  },
  {
    "name": "Pauline Pelle-Exterkate",
    "street_address": "Het Kemerink 19",
    "postal_code": "7497MN",
    "locality": "Bentelo",
    "region": "Overijssel",
    "latitude": "52.22275399999999",
    "longitude": "6.6850909"
  },
  {
    "name": "Goodlooks",
    "street_address": "De Zwanebloem 34",
    "postal_code": "8064HJ",
    "locality": "Zwartsluis",
    "region": "Overijssel",
    "latitude": "52.647023",
    "longitude": "6.0725247"
  },
  {
    "name": "Mixx Hair",
    "street_address": "Belvederelaan 105",
    "postal_code": "8043LW",
    "locality": "Zwolle",
    "region": "Overijssel",
    "latitude": "52.5347314",
    "longitude": "6.0557021"
  },
  {
    "name": "Kapsalon Agnes",
    "street_address": "Barsbeek 18 A",
    "postal_code": "8326BN",
    "locality": "Sint Jansklooster",
    "region": "Overijssel",
    "latitude": "52.6750985",
    "longitude": "6.014012399999999"
  },
  {
    "name": "R.H.J. Zwiers",
    "street_address": "Veneweg 240",
    "postal_code": "7946LT",
    "locality": "Wanneperveen",
    "region": "Overijssel",
    "latitude": "52.6954411",
    "longitude": "6.094892"
  },
  {
    "name": "Kapsalon Tonny",
    "street_address": "Van Dongenstraat 39 A",
    "postal_code": "8107AE",
    "locality": "Broekland",
    "region": "Overijssel",
    "latitude": "52.3650573",
    "longitude": "6.189481499999999"
  },
  {
    "name": "Kapsalon Hans Heinink",
    "street_address": "Hyacinthstraat 2",
    "postal_code": "7572BC",
    "locality": "Oldenzaal",
    "region": "Overijssel",
    "latitude": "52.3122293",
    "longitude": "6.923585099999999"
  },
  {
    "name": "De Goedkope Kapper",
    "street_address": "Friesestraat 8",
    "postal_code": "7741GV",
    "locality": "Coevorden",
    "region": "Drenthe",
    "latitude": "52.661458",
    "longitude": "6.740111799999999"
  },
  {
    "name": "Haarstudio Mieke",
    "street_address": "1e Weerdsweg 71",
    "postal_code": "7412WP",
    "locality": "Deventer",
    "region": "Overijssel",
    "latitude": "52.2612949",
    "longitude": "6.1438262"
  },
  {
    "name": "Kapsalon Savannah",
    "street_address": "Lage Egge 3",
    "postal_code": "8334TR",
    "locality": "Tuk",
    "region": "Overijssel",
    "latitude": "52.7926003",
    "longitude": "6.0842756"
  },
  {
    "name": "Desmo Hair",
    "street_address": "G.J. van Heekstraat 342",
    "postal_code": "7521EM",
    "locality": "Enschede",
    "region": "Overijssel",
    "latitude": "52.228249",
    "longitude": "6.8645866"
  },
  {
    "name": "Ami Kappers Meppel",
    "street_address": "Grote Akkerstraat 26",
    "postal_code": "7941BB",
    "locality": "Meppel",
    "region": "Drenthe",
    "latitude": "52.6986886",
    "longitude": "6.1892983"
  },
  {
    "name": "Barber4you",
    "street_address": "Lochemseweg 32",
    "postal_code": "7214RK",
    "locality": "Epse",
    "region": "Gelderland",
    "latitude": "52.2253589",
    "longitude": "6.199506299999999"
  },
  {
    "name": "Barbershop Kampen",
    "street_address": "Geerstraat 6",
    "postal_code": "8261HM",
    "locality": "Kampen",
    "region": "Overijssel",
    "latitude": "52.5557349",
    "longitude": "5.9189804"
  },
  {
    "name": "Chantal's Knip Enzo",
    "street_address": "Usselerveenweg 114",
    "postal_code": "7546PJ",
    "locality": "Enschede",
    "region": "Overijssel",
    "latitude": "52.1870379",
    "longitude": "6.841823799999999"
  },
  {
    "name": "Hairfashion Jeanell",
    "street_address": "Zwaluwenburg 25-27",
    "postal_code": "7423DV",
    "locality": "Deventer",
    "region": "Overijssel",
    "latitude": "52.254185",
    "longitude": "6.2065522"
  },
  {
    "name": "New look CitySpa Meppel",
    "street_address": "Prins Hendrikstraat 8 a",
    "postal_code": "7941EB",
    "locality": "Meppel",
    "region": "Drenthe",
    "latitude": "52.6965263",
    "longitude": "6.1863924"
  },
  {
    "name": "Hair@Home",
    "street_address": "Volmersweg 8 a",
    "postal_code": "7678SJ",
    "locality": "Geesteren",
    "region": "Overijssel",
    "latitude": "52.4313833",
    "longitude": "6.7493811"
  },
  {
    "name": "De Salon",
    "street_address": "Industriestraat 60",
    "postal_code": "7553CL",
    "locality": "Hengelo",
    "region": "Overijssel",
    "latitude": "52.2564202",
    "longitude": "6.787141399999999"
  },
  {
    "name": "ambulant Kapster Hennie",
    "street_address": "Mesdagstraat 15",
    "postal_code": "7701ZT",
    "locality": "Dedemsvaart",
    "region": "Overijssel",
    "latitude": "52.5991874",
    "longitude": "6.4664152"
  },
  {
    "name": "Kapsalon Patricia",
    "street_address": "Oosterbrugstraat 19",
    "postal_code": "8281BT",
    "locality": "Genemuiden",
    "region": "Overijssel",
    "latitude": "52.625138",
    "longitude": "6.0425557"
  },
  {
    "name": "Kapsels Enzo",
    "street_address": "Leliestraat 34 A",
    "postal_code": "7572VB",
    "locality": "Oldenzaal",
    "region": "Overijssel",
    "latitude": "52.315991",
    "longitude": "6.919677999999999"
  },
  {
    "name": "Kapsalon Ozzy",
    "street_address": "Volcmarstraat 13",
    "postal_code": "8262VM",
    "locality": "Kampen",
    "region": "Overijssel",
    "latitude": "52.56004069999999",
    "longitude": "5.9044582"
  },
  {
    "name": "Karin Hair Styling & Beautysalo..",
    "street_address": "Dorpsstraat 25",
    "postal_code": "8111AB",
    "locality": "Heeten",
    "region": "Overijssel",
    "latitude": "52.3320613",
    "longitude": "6.2823129"
  },
  {
    "name": "Welkom Haarmode",
    "street_address": "Admiraal de Ruyterstraat 39",
    "postal_code": "8331RX",
    "locality": "Steenwijk",
    "region": "Overijssel",
    "latitude": "52.7829854",
    "longitude": "6.106755799999999"
  },
  {
    "name": "Sjiek haar & make-up",
    "street_address": "Deurningerstraat 242",
    "postal_code": "7522CL",
    "locality": "Enschede",
    "region": "Overijssel",
    "latitude": "52.2332883",
    "longitude": "6.886977799999999"
  },
  {
    "name": "Kapsalon Prins Haarmode",
    "street_address": "Burgwal 14",
    "postal_code": "8261EM",
    "locality": "Kampen",
    "region": "Overijssel",
    "latitude": "52.55407229999999",
    "longitude": "5.9208729"
  },
  {
    "name": "Hairboost",
    "street_address": "Grote Akkerstraat 34",
    "postal_code": "7941BB",
    "locality": "Meppel",
    "region": "Drenthe",
    "latitude": "52.6989201",
    "longitude": "6.189332299999999"
  },
  {
    "name": "Salon Harmonique",
    "street_address": "Dorpsstraat 16",
    "postal_code": "7678AW",
    "locality": "Geesteren",
    "region": "Overijssel",
    "latitude": "52.4207906",
    "longitude": "6.739071099999999"
  },
  {
    "name": "Kapper Dam",
    "street_address": "Enschedesestraat 148",
    "postal_code": "7552CR",
    "locality": "Hengelo",
    "region": "Overijssel",
    "latitude": "52.2621116",
    "longitude": "6.8028638"
  },
  {
    "name": "Kapsalon Alexandra",
    "street_address": "Schipholtstraat 28",
    "postal_code": "7534CX",
    "locality": "Enschede",
    "region": "Overijssel",
    "latitude": "52.21332169999999",
    "longitude": "6.9730703"
  },
  {
    "name": "W. Kruit",
    "street_address": "Rielerweg 99",
    "postal_code": "7416ZL",
    "locality": "Deventer",
    "region": "Overijssel",
    "latitude": "52.2582125",
    "longitude": "6.1713101"
  },
  {
    "name": "Margrit's Hairfashion",
    "street_address": "Oonderschoer 12",
    "postal_code": "7475GN",
    "locality": "Markelo",
    "region": "Overijssel",
    "latitude": "52.2411263",
    "longitude": "6.4983529"
  },
  {
    "name": "Hair to You",
    "street_address": "Overmaterhoek 7",
    "postal_code": "8131SW",
    "locality": "Wijhe",
    "region": "Overijssel",
    "latitude": "52.37735989999999",
    "longitude": "6.1531498"
  },
  {
    "name": "Gert-Henk Deters Hairstyling",
    "street_address": "Oldenzaalsestraat 124",
    "postal_code": "7514DS",
    "locality": "Enschede",
    "region": "Overijssel",
    "latitude": "52.2243888",
    "longitude": "6.8996761"
  },
  {
    "name": "Kapsalon Jody",
    "street_address": "Hellendoornseweg 2",
    "postal_code": "8148RH",
    "locality": "Lemele",
    "region": "Overijssel",
    "latitude": "52.4520458",
    "longitude": "6.4158487"
  },
  {
    "name": "Style & Trendy Hair",
    "street_address": "Zwolseweg 33",
    "postal_code": "7412AA",
    "locality": "Deventer",
    "region": "Overijssel",
    "latitude": "52.2592615",
    "longitude": "6.148346999999999"
  },
  {
    "name": "de Haarshop",
    "street_address": "Anerweg-Noord 12 A",
    "postal_code": "7775AS",
    "locality": "Lutten",
    "region": "Overijssel",
    "latitude": "52.6104798",
    "longitude": "6.574385899999999"
  },
  {
    "name": "Salon Annelies",
    "street_address": "Springerstraat 1 B",
    "postal_code": "7609PC",
    "locality": "Almelo",
    "region": "Overijssel",
    "latitude": "52.3383323",
    "longitude": "6.664263300000001"
  },
  {
    "name": "Flair Haarmode",
    "street_address": "Flora 46",
    "postal_code": "7422LL",
    "locality": "Deventer",
    "region": "Overijssel",
    "latitude": "52.24786049999999",
    "longitude": "6.2157322"
  },
  {
    "name": "Afro Hair and Beautysalon",
    "street_address": "Kuipersdijk 102",
    "postal_code": "7512CL",
    "locality": "Enschede",
    "region": "Overijssel",
    "latitude": "52.2133257",
    "longitude": "6.8959639"
  },
  {
    "name": "Annemarie's Hairfashion",
    "street_address": "Goorseweg 28",
    "postal_code": "7475BD",
    "locality": "Markelo",
    "region": "Overijssel",
    "latitude": "52.2341207",
    "longitude": "6.4987197"
  },
  {
    "name": "Dameskapsalon J. Buter",
    "street_address": "Bouwstraat 15",
    "postal_code": "7731CP",
    "locality": "Ommen",
    "region": "Overijssel",
    "latitude": "52.5197744",
    "longitude": "6.4244412"
  },
  {
    "name": "Christel's Hairfashion",
    "street_address": "Nijstad 23",
    "postal_code": "7622LA",
    "locality": "Borne",
    "region": "Overijssel",
    "latitude": "52.300262",
    "longitude": "6.7561927"
  },
  {
    "name": "Barbershop barberiano",
    "street_address": "Kerkstraat 8",
    "postal_code": "8325BK",
    "locality": "Vollenhove",
    "region": "Overijssel",
    "latitude": "52.6812881",
    "longitude": "5.9488309"
  },
  {
    "name": "Kapsalon Jansen",
    "street_address": "De Dijnsel 20",
    "postal_code": "7665DL",
    "locality": "Albergen",
    "region": "Overijssel",
    "latitude": "52.36886939999999",
    "longitude": "6.7634944"
  },
  {
    "name": "Beauty Hair Extensions",
    "street_address": "David Ricardostraat 13-11",
    "postal_code": "7559SH",
    "locality": "Hengelo",
    "region": "Overijssel",
    "latitude": "52.295632",
    "longitude": "6.7822121"
  },
  {
    "name": "Hairstudio Petra",
    "street_address": "Westeinde 97 A",
    "postal_code": "7671EL",
    "locality": "Vriezenveen",
    "region": "Overijssel",
    "latitude": "52.4109634",
    "longitude": "6.6224764"
  },
  {
    "name": "Ümüs Hairline",
    "street_address": "Beukweg 83",
    "postal_code": "7556DD",
    "locality": "Hengelo",
    "region": "Overijssel",
    "latitude": "52.2732684",
    "longitude": "6.792059200000001"
  },
  {
    "name": "Kapsalon Silk Hair",
    "street_address": "Potsweg 1",
    "postal_code": "7523CA",
    "locality": "Enschede",
    "region": "Overijssel",
    "latitude": "52.2344508",
    "longitude": "6.9001351"
  },
  {
    "name": "Irina Hairfashion",
    "street_address": "Oldenzaalsestraat 93",
    "postal_code": "7511DZ",
    "locality": "Enschede",
    "region": "Overijssel",
    "latitude": "52.2228861",
    "longitude": "6.8989571"
  },
  {
    "name": "Geert Hairstyling",
    "street_address": "Dorpsstraat 36",
    "postal_code": "7468CL",
    "locality": "Enter",
    "region": "Overijssel",
    "latitude": "52.2977204",
    "longitude": "6.5774845"
  },
  {
    "name": "Kapsalon Afee",
    "street_address": "Hoogstraat 117",
    "postal_code": "8011AW",
    "locality": "Zwolle",
    "region": "Overijssel",
    "latitude": "52.5132536",
    "longitude": "6.081110199999999"
  },
  {
    "name": "Kapsalon 'Marie Claire's Haarmo..",
    "street_address": "Josef Haydnlaan 33",
    "postal_code": "7557CT",
    "locality": "Hengelo",
    "region": "Overijssel",
    "latitude": "52.2705114",
    "longitude": "6.8168219"
  },
  {
    "name": "Dames/Herenkapsalon Young Style",
    "street_address": "Achterstraat 19",
    "postal_code": "8051GA",
    "locality": "Hattem",
    "region": "Gelderland",
    "latitude": "52.4750896",
    "longitude": "6.068142"
  },
  {
    "name": "Art of Hair",
    "street_address": "Aaldert Geertsstraat 20",
    "postal_code": "8121BL",
    "locality": "Olst",
    "region": "Overijssel",
    "latitude": "52.3377552",
    "longitude": "6.110502299999999"
  },
  {
    "name": "Kapperij De Penninckhof",
    "street_address": "Julianastraat 2",
    "postal_code": "7721AT",
    "locality": "Dalfsen",
    "region": "Overijssel",
    "latitude": "52.50420219999999",
    "longitude": "6.2593464"
  },
  {
    "name": "Salon Images",
    "street_address": "Burgemeester Backxlaan 3",
    "postal_code": "7711AA",
    "locality": "Nieuwleusen",
    "region": "Overijssel",
    "latitude": "52.5736983",
    "longitude": "6.292147399999999"
  },
  {
    "name": "Coiffeur Aziz",
    "street_address": "Deurningerstraat 210",
    "postal_code": "7557HM",
    "locality": "Hengelo",
    "region": "Overijssel",
    "latitude": "52.2774896",
    "longitude": "6.8060353"
  },
  {
    "name": "Coupe Carlijn",
    "street_address": "Spittendijk 37",
    "postal_code": "7591CJ",
    "locality": "Denekamp",
    "region": "Overijssel",
    "latitude": "52.3800093",
    "longitude": "7.007513299999999"
  },
  {
    "name": "Esther's Haarmode",
    "street_address": "Vijverweg 6",
    "postal_code": "7957AL",
    "locality": "De Wijk",
    "region": "Drenthe",
    "latitude": "52.67384089999999",
    "longitude": "6.284580399999999"
  },
  {
    "name": "Kapsalon van 't Veen",
    "street_address": "Hofstraat 27 A",
    "postal_code": "8261BW",
    "locality": "Kampen",
    "region": "Overijssel",
    "latitude": "52.5561512",
    "longitude": "5.918243899999999"
  },
  {
    "name": "Hairextensions Zwolle",
    "street_address": "Tak van Poortvlietware 1",
    "postal_code": "8014WJ",
    "locality": "Zwolle",
    "region": "Overijssel",
    "latitude": "52.48086499999999",
    "longitude": "6.1108063"
  },
  {
    "name": "Daphne's Hair Salon",
    "street_address": "Vriezenveenseweg 135",
    "postal_code": "7602AD",
    "locality": "Almelo",
    "region": "Overijssel",
    "latitude": "52.3707319",
    "longitude": "6.6672314"
  },
  {
    "name": "Kuypers Haarmode",
    "street_address": "Marskant 6",
    "postal_code": "7551BV",
    "locality": "Hengelo",
    "region": "Overijssel",
    "latitude": "52.2636712",
    "longitude": "6.791228599999999"
  },
  {
    "name": "Cindy's Hair-Flash",
    "street_address": "Campherbeeklaan 8 I",
    "postal_code": "8024BW",
    "locality": "Zwolle",
    "region": "Overijssel",
    "latitude": "52.5264227",
    "longitude": "6.1331278"
  },
  {
    "name": "Gobel Haarmode",
    "street_address": "Maagdenburgstraat 32 A",
    "postal_code": "7421ZD",
    "locality": "Deventer",
    "region": "Overijssel",
    "latitude": "52.23998659999999",
    "longitude": "6.2221449"
  },
  {
    "name": "G. Disselhof",
    "street_address": "Muijdermanstraat 6",
    "postal_code": "8017HX",
    "locality": "Zwolle",
    "region": "Overijssel",
    "latitude": "52.4955089",
    "longitude": "6.106515099999999"
  },
  {
    "name": "Haarstylist Suus",
    "street_address": "Esdoornhof 243",
    "postal_code": "8266GH",
    "locality": "Kampen",
    "region": "Overijssel",
    "latitude": "52.54419300000001",
    "longitude": "5.9234672"
  },
  {
    "name": "Cindymode4kids",
    "street_address": "Zwarteweg 17",
    "postal_code": "8112AC",
    "locality": "Nieuw Heeten",
    "region": "Overijssel",
    "latitude": "52.3220515",
    "longitude": "6.3494533"
  },
  {
    "name": "Hair by Annemarie",
    "street_address": "Schoolstraat 17",
    "postal_code": "7461EG",
    "locality": "Rijssen",
    "region": "Overijssel",
    "latitude": "52.3061229",
    "longitude": "6.526577899999999"
  },
  {
    "name": "Creativo kapsalon",
    "street_address": "Deurningerstraat 52",
    "postal_code": "7514BJ",
    "locality": "Enschede",
    "region": "Overijssel",
    "latitude": "52.2266754",
    "longitude": "6.8909708"
  },
  {
    "name": "Heleen",
    "street_address": "Bachplein 21",
    "postal_code": "7701TT",
    "locality": "Dedemsvaart",
    "region": "Overijssel",
    "latitude": "52.59804399999999",
    "longitude": "6.4610615"
  },
  {
    "name": "Karin Hairstyling",
    "street_address": "Smidsstraat 1",
    "postal_code": "7447CH",
    "locality": "Hellendoorn",
    "region": "Overijssel",
    "latitude": "52.39093270000001",
    "longitude": "6.4495231"
  },
  {
    "name": "Lorist Haarmode",
    "street_address": "Langestraat 128",
    "postal_code": "8281AN",
    "locality": "Genemuiden",
    "region": "Overijssel",
    "latitude": "52.621238",
    "longitude": "6.040697799999999"
  },
  {
    "name": "Kapsalon Marian",
    "street_address": "Haarstraat 9",
    "postal_code": "7595PE",
    "locality": "Weerselo",
    "region": "Overijssel",
    "latitude": "52.3500105",
    "longitude": "6.8583941"
  },
  {
    "name": "Kapsalon Look Hair",
    "street_address": "Dorpsstraat 7",
    "postal_code": "8151BA",
    "locality": "Lemelerveld",
    "region": "Overijssel",
    "latitude": "52.44493259999999",
    "longitude": "6.3420473"
  },
  {
    "name": "Anita's Haarmode",
    "street_address": "Wethouder Imminkstraat 8",
    "postal_code": "8148PW",
    "locality": "Lemele",
    "region": "Overijssel",
    "latitude": "52.453737",
    "longitude": "6.4156821"
  },
  {
    "name": "Haar & Zo",
    "street_address": "Dorpsstraat 73",
    "postal_code": "7468CE",
    "locality": "Enter",
    "region": "Overijssel",
    "latitude": "52.29529059999999",
    "longitude": "6.5777712"
  },
  {
    "name": "Dick W.J. Heuckeroth",
    "street_address": "Ebbinge Wubbenlaan 15",
    "postal_code": "7951AA",
    "locality": "Staphorst",
    "region": "Overijssel",
    "latitude": "52.64803089999999",
    "longitude": "6.205854899999999"
  },
  {
    "name": "Effect haarstudio",
    "street_address": "Het Wormer 5",
    "postal_code": "8111BK",
    "locality": "Heeten",
    "region": "Overijssel",
    "latitude": "52.33283410000001",
    "longitude": "6.2763864"
  },
  {
    "name": "Lutje Schipholt hairfashion",
    "street_address": "Burgemeester Edo Bergsmalaan 6",
    "postal_code": "7512AD",
    "locality": "Enschede",
    "region": "Overijssel",
    "latitude": "52.2164729",
    "longitude": "6.895500600000001"
  },
  {
    "name": "Kapstars Haarmode",
    "street_address": "G.J. van Heekstraat 241",
    "postal_code": "7521EE",
    "locality": "Enschede",
    "region": "Overijssel",
    "latitude": "52.2294502",
    "longitude": "6.858749599999999"
  },
  {
    "name": "New Image",
    "street_address": "Kleine Overstraat 17",
    "postal_code": "7411JH",
    "locality": "Deventer",
    "region": "Overijssel",
    "latitude": "52.2525899",
    "longitude": "6.1573949"
  },
  {
    "name": "Kapsalon Margret Spin",
    "street_address": "Meppelerweg 137",
    "postal_code": "8344XW",
    "locality": "Onna",
    "region": "Overijssel",
    "latitude": "52.7752118",
    "longitude": "6.1667063"
  },
  {
    "name": "Josephine's Hairstudio",
    "street_address": "Bergpoortstraat 137",
    "postal_code": "7411CV",
    "locality": "Deventer",
    "region": "Overijssel",
    "latitude": "52.2512522",
    "longitude": "6.166676499999999"
  },
  {
    "name": "ARUYA",
    "street_address": "Pathmossingel 77 A",
    "postal_code": "7513CC",
    "locality": "Enschede",
    "region": "Overijssel",
    "latitude": "52.2140478",
    "longitude": "6.8765749"
  },
  {
    "name": "Kapsalon Esther",
    "street_address": "Korte Haaksbergerstraat 42",
    "postal_code": "7511JS",
    "locality": "Enschede",
    "region": "Overijssel",
    "latitude": "52.2198715",
    "longitude": "6.8923071"
  },
  {
    "name": "Rob's New Hairline",
    "street_address": "Admiraal Helfrichstraat 6",
    "postal_code": "7772BR",
    "locality": "Hardenberg",
    "region": "Overijssel",
    "latitude": "52.5743437",
    "longitude": "6.6203419"
  },
  {
    "name": "Fun4hair",
    "street_address": "Gareel 22",
    "postal_code": "8061MZ",
    "locality": "Hasselt",
    "region": "Overijssel",
    "latitude": "52.59666929999999",
    "longitude": "6.1067808"
  },
  {
    "name": "Bysass",
    "street_address": "Cort van der Lindenlaan 22",
    "postal_code": "7521AT",
    "locality": "Enschede",
    "region": "Overijssel",
    "latitude": "52.2269613",
    "longitude": "6.8769277"
  },
  {
    "name": "Hanneke's Haarstudio",
    "street_address": "Van Diemenstraat 66",
    "postal_code": "7535AP",
    "locality": "Enschede",
    "region": "Overijssel",
    "latitude": "52.2092426",
    "longitude": "6.912901799999999"
  },
  {
    "name": "Kapsalon Monique",
    "street_address": "Zwolseweg 161",
    "postal_code": "7707AE",
    "locality": "Balkbrug",
    "region": "Overijssel",
    "latitude": "52.5991678",
    "longitude": "6.3757397"
  },
  {
    "name": "Rubén's Coupé",
    "street_address": "Stationsstraat 21",
    "postal_code": "7641BV",
    "locality": "Wierden",
    "region": "Overijssel",
    "latitude": "52.3601974",
    "longitude": "6.591889699999999"
  },
  {
    "name": "Dameskapsalon Vennink",
    "street_address": "Lipperkerkstraat 47",
    "postal_code": "7511CT",
    "locality": "Enschede",
    "region": "Overijssel",
    "latitude": "52.2207658",
    "longitude": "6.9053051"
  },
  {
    "name": "Irma Bloemen's Knip Service",
    "street_address": "Pastoor Brandsmastraat 40",
    "postal_code": "7481BP",
    "locality": "Haaksbergen",
    "region": "Overijssel",
    "latitude": "52.1623308",
    "longitude": "6.7527615"
  },
  {
    "name": "Scissors Haarmode",
    "street_address": "Nieuwstraat 18",
    "postal_code": "7411LL",
    "locality": "Deventer",
    "region": "Overijssel",
    "latitude": "52.2540134",
    "longitude": "6.155140599999999"
  },
  {
    "name": "Hairstyliste Jeanet",
    "street_address": "Reysigerweg 13",
    "postal_code": "8017HA",
    "locality": "Zwolle",
    "region": "Overijssel",
    "latitude": "52.4991398",
    "longitude": "6.1005804"
  },
  {
    "name": "Trends4beauty",
    "street_address": "Elswout 22",
    "postal_code": "7608JN",
    "locality": "Almelo",
    "region": "Overijssel",
    "latitude": "52.377588",
    "longitude": "6.6732309"
  },
  {
    "name": "Sandra's HaarZaak",
    "street_address": "Louis Saalbornstraat 2",
    "postal_code": "7558ST",
    "locality": "Hengelo",
    "region": "Overijssel",
    "latitude": "52.2849335",
    "longitude": "6.842520599999999"
  },
  {
    "name": "Kapsalon Miranda van Elburg",
    "street_address": "Tottenhamstraat 36",
    "postal_code": "7701BN",
    "locality": "Dedemsvaart",
    "region": "Overijssel",
    "latitude": "52.6079223",
    "longitude": "6.5215359"
  },
  {
    "name": "Hair Haarmode",
    "street_address": "Jan Schamhartstraat 7",
    "postal_code": "8121CM",
    "locality": "Olst",
    "region": "Overijssel",
    "latitude": "52.3362721",
    "longitude": "6.1109462"
  },
  {
    "name": "Nagel en Haar Studio 10",
    "street_address": "Bruglaan 10",
    "postal_code": "7611BL",
    "locality": "Aadorp",
    "region": "Overijssel",
    "latitude": "52.3744668",
    "longitude": "6.627965199999999"
  },
  {
    "name": "La Belle Haarservice aan Huis",
    "street_address": "Hilbertsweg 2",
    "postal_code": "7625RE",
    "locality": "Zenderen",
    "region": "Overijssel",
    "latitude": "52.3149963",
    "longitude": "6.739648"
  },
  {
    "name": "De Dalfser Barbier",
    "street_address": "Emmastraat 16-18",
    "postal_code": "7721DM",
    "locality": "Dalfsen",
    "region": "Overijssel",
    "latitude": "52.505866",
    "longitude": "6.260089499999999"
  },
  {
    "name": "Mengers Coiffures",
    "street_address": "Keizerserf 32",
    "postal_code": "7442MN",
    "locality": "Nijverdal",
    "region": "Overijssel",
    "latitude": "52.3637885",
    "longitude": "6.4596977"
  },
  {
    "name": "Kapsalon Jeannet",
    "street_address": "Timmermansweg 33",
    "postal_code": "7433BK",
    "locality": "Schalkhaar",
    "region": "Overijssel",
    "latitude": "52.2672653",
    "longitude": "6.1937118"
  },
  {
    "name": "Kapsalon Audrey",
    "street_address": "Groen van Prinstererstraat 32",
    "postal_code": "7442MV",
    "locality": "Nijverdal",
    "region": "Overijssel",
    "latitude": "52.3642282",
    "longitude": "6.4587834"
  },
  {
    "name": "Lookwell Hairstyling",
    "street_address": "Spoorstraat 4 A",
    "postal_code": "7687AM",
    "locality": "Daarlerveen",
    "region": "Overijssel",
    "latitude": "52.4418316",
    "longitude": "6.5771345"
  },
  {
    "name": "Ami Kappers Coevorden",
    "street_address": "Friesestraat 70",
    "postal_code": "7741GX",
    "locality": "Coevorden",
    "region": "Drenthe",
    "latitude": "52.662931",
    "longitude": "6.7379533"
  },
  {
    "name": "Kapsalon Jessica",
    "street_address": "Carry Pothuislaan 19",
    "postal_code": "7741ZG",
    "locality": "Coevorden",
    "region": "Drenthe",
    "latitude": "52.6714906",
    "longitude": "6.7281621"
  },
  {
    "name": "Patricia Wassink",
    "street_address": "Doctor Schaepmanstraat 30",
    "postal_code": "7471JW",
    "locality": "Goor",
    "region": "Overijssel",
    "latitude": "52.2335579",
    "longitude": "6.596249299999999"
  },
  {
    "name": "Chic Hairstyling",
    "street_address": "Diezerkade 15-1",
    "postal_code": "8021CW",
    "locality": "Zwolle",
    "region": "Overijssel",
    "latitude": "52.51527530000001",
    "longitude": "6.101795699999999"
  },
  {
    "name": "Frendz for your hair",
    "street_address": "Stationsstraat 15- 17",
    "postal_code": "7391EG",
    "locality": "Twello",
    "region": "Gelderland",
    "latitude": "52.2372303",
    "longitude": "6.1025421"
  },
  {
    "name": "Linda Modderman",
    "street_address": "Vaassenseweg 17",
    "postal_code": "7396NA",
    "locality": "Terwolde",
    "region": "Gelderland",
    "latitude": "52.2850224",
    "longitude": "6.085592399999999"
  },
  {
    "name": "E.A. vd Meer Haarmode H.O. Cosm..",
    "street_address": "Oude Vismarkt 26",
    "postal_code": "8011TB",
    "locality": "Zwolle",
    "region": "Overijssel",
    "latitude": "52.5117152",
    "longitude": "6.0939877"
  },
  {
    "name": "CH Kappers",
    "street_address": "Marktstraat 17 A",
    "postal_code": "8102CH",
    "locality": "Raalte",
    "region": "Overijssel",
    "latitude": "52.3861054",
    "longitude": "6.276500299999999"
  },
  {
    "name": "Kapsalon Ilonka",
    "street_address": "Hantermansstraat 49",
    "postal_code": "7607VD",
    "locality": "Almelo",
    "region": "Overijssel",
    "latitude": "52.3609903",
    "longitude": "6.6662161"
  },
  {
    "name": "Hans Hair Studio",
    "street_address": "Westwal 4 A",
    "postal_code": "7631BN",
    "locality": "Ootmarsum",
    "region": "Overijssel",
    "latitude": "52.407532",
    "longitude": "6.894934999999999"
  },
  {
    "name": "Lady Barbier",
    "street_address": "Woldpromenade 35",
    "postal_code": "8331JE",
    "locality": "Steenwijk",
    "region": "Overijssel",
    "latitude": "52.7868454",
    "longitude": "6.1137633"
  },
  {
    "name": "Kapper & zo",
    "street_address": "Bentheimerstraat 5",
    "postal_code": "7741JH",
    "locality": "Coevorden",
    "region": "Drenthe",
    "latitude": "52.6606333",
    "longitude": "6.7409658"
  },
  {
    "name": "Kapsalon De Barreboks",
    "street_address": "De Hems 16-92",
    "postal_code": "7522NL",
    "locality": "Enschede",
    "region": "Overijssel",
    "latitude": "52.2435155",
    "longitude": "6.8513071"
  },
  {
    "name": "Mobil Trend",
    "street_address": "Teldersstraat 25",
    "postal_code": "8265WS",
    "locality": "Kampen",
    "region": "Overijssel",
    "latitude": "52.5458781",
    "longitude": "5.914331499999999"
  },
  {
    "name": "Salon Mondy",
    "street_address": "Kevelhamhoek 89",
    "postal_code": "7546EN",
    "locality": "Enschede",
    "region": "Overijssel",
    "latitude": "52.193789",
    "longitude": "6.855829699999999"
  },
  {
    "name": "Flair Haarmode",
    "street_address": "Karel de Groteplein 18",
    "postal_code": "7415DH",
    "locality": "Deventer",
    "region": "Overijssel",
    "latitude": "52.2688906",
    "longitude": "6.1644662"
  },
  {
    "name": "Jolanda's Haarservice",
    "street_address": "Markveldsedijk 3 a",
    "postal_code": "7161LT",
    "locality": "Neede",
    "region": "Gelderland",
    "latitude": "52.16066550000001",
    "longitude": "6.5886023"
  },
  {
    "name": "Hair & Beauty By Petra van den..",
    "street_address": "Watermolen 61-63",
    "postal_code": "7461AZ",
    "locality": "Rijssen",
    "region": "Overijssel",
    "latitude": "52.3097971",
    "longitude": "6.520249"
  },
  {
    "name": "lienekejansenhairstylist",
    "street_address": "Coevorderweg 27 7",
    "postal_code": "7737PE",
    "locality": "Stegeren",
    "region": "Overijssel",
    "latitude": "52.5477643",
    "longitude": "6.5021088"
  },
  {
    "name": "Thuiskapper Zwolle - Doenja",
    "street_address": "Te Winkelmarke 5",
    "postal_code": "8016MP",
    "locality": "Zwolle",
    "region": "Overijssel",
    "latitude": "52.4773643",
    "longitude": "6.1081672"
  },
  {
    "name": "Hair By Treder",
    "street_address": "Willem van Otterloostraat 35",
    "postal_code": "7558BX",
    "locality": "Hengelo",
    "region": "Overijssel",
    "latitude": "52.2839503",
    "longitude": "6.8286326"
  },
  {
    "name": "Esrein Haarmode",
    "street_address": "Meijersweg 13",
    "postal_code": "7553AX",
    "locality": "Hengelo",
    "region": "Overijssel",
    "latitude": "52.2563875",
    "longitude": "6.7838299"
  },
  {
    "name": "John Bijsterbosch Haarmode",
    "street_address": "Klokkengieterlaan 48",
    "postal_code": "8043BS",
    "locality": "Zwolle",
    "region": "Overijssel",
    "latitude": "52.5367201",
    "longitude": "6.0631903"
  },
  {
    "name": "Haarsalon Jevon",
    "street_address": "Schoolstraat 5",
    "postal_code": "8064DK",
    "locality": "Zwartsluis",
    "region": "Overijssel",
    "latitude": "52.6404352",
    "longitude": "6.0709889"
  },
  {
    "name": "Kapsalon Rina",
    "street_address": "Liesbeth Den Uylstraat 8",
    "postal_code": "7421HB",
    "locality": "Deventer",
    "region": "Overijssel",
    "latitude": "52.2434641",
    "longitude": "6.229868000000001"
  },
  {
    "name": "Hairstyling at Home",
    "street_address": "Ziekenhuisstraat 36",
    "postal_code": "7557AB",
    "locality": "Hengelo",
    "region": "Overijssel",
    "latitude": "52.2640794",
    "longitude": "6.8016372"
  },
  {
    "name": "Kapsalon Lucky Scissors",
    "street_address": "Koperwiek 35",
    "postal_code": "7423EB",
    "locality": "Deventer",
    "region": "Overijssel",
    "latitude": "52.2557827",
    "longitude": "6.2100652"
  },
  {
    "name": "Hairfun",
    "street_address": "De Maat 5",
    "postal_code": "8265SX",
    "locality": "Kampen",
    "region": "Overijssel",
    "latitude": "52.5376533",
    "longitude": "5.9126118"
  },
  {
    "name": "A.J.M. Legebeke",
    "street_address": "Dorpsstraat 54",
    "postal_code": "7431CL",
    "locality": "Diepenveen",
    "region": "Overijssel",
    "latitude": "52.2943292",
    "longitude": "6.143561999999999"
  },
  {
    "name": "Marjo Hair Design",
    "street_address": "Puntkolk 2",
    "postal_code": "7681DA",
    "locality": "Vroomshoop",
    "region": "Overijssel",
    "latitude": "52.4535292",
    "longitude": "6.5735249"
  },
  {
    "name": "Kuypers-Haarmode",
    "street_address": "Langestraat 27",
    "postal_code": "7511HB",
    "locality": "Enschede",
    "region": "Overijssel",
    "latitude": "52.2190783",
    "longitude": "6.8967003"
  },
  {
    "name": "Hair by Melis",
    "street_address": "Populierstraat 22",
    "postal_code": "7545MK",
    "locality": "Enschede",
    "region": "Overijssel",
    "latitude": "52.2167508",
    "longitude": "6.865390400000001"
  },
  {
    "name": "Kapsalon Koelle",
    "street_address": "Almeloseweg 4",
    "postal_code": "7671RD",
    "locality": "Vriezenveen",
    "region": "Overijssel",
    "latitude": "52.41226",
    "longitude": "6.6279068"
  },
  {
    "name": "Oostindie Haarspecialisten",
    "street_address": "Petuniaplein 2",
    "postal_code": "8042AV",
    "locality": "Zwolle",
    "region": "Overijssel",
    "latitude": "52.5220484",
    "longitude": "6.0499751"
  },
  {
    "name": "Braham Coiffures",
    "street_address": "Krabbenbosweg 267 a",
    "postal_code": "7555EJ",
    "locality": "Hengelo",
    "region": "Overijssel",
    "latitude": "52.2579594",
    "longitude": "6.7655691"
  },
  {
    "name": "Mandy's Hair Look",
    "street_address": "De Ooievaar 6",
    "postal_code": "7609MD",
    "locality": "Almelo",
    "region": "Overijssel",
    "latitude": "52.3286542",
    "longitude": "6.635472399999999"
  },
  {
    "name": "Haarst. 't Hooge Holt Eig. S. v..",
    "street_address": "Boslaan 1",
    "postal_code": "7783DD",
    "locality": "Gramsbergen",
    "region": "Overijssel",
    "latitude": "52.6072879",
    "longitude": "6.6770537"
  },
  {
    "name": "Marjo Hairdesign",
    "street_address": "Schoolstraat 2 A",
    "postal_code": "7693PH",
    "locality": "Sibculo",
    "region": "Overijssel",
    "latitude": "52.4815219",
    "longitude": "6.6361962"
  },
  {
    "name": "Salon Jos",
    "street_address": "Enschedesestraat 29",
    "postal_code": "7551EH",
    "locality": "Hengelo",
    "region": "Overijssel",
    "latitude": "52.2644591",
    "longitude": "6.795979600000001"
  },
  {
    "name": "Glow by Debby",
    "street_address": "Jan Sluytersstraat 7",
    "postal_code": "7731ML",
    "locality": "Ommen",
    "region": "Overijssel",
    "latitude": "52.5346963",
    "longitude": "6.4275177"
  },
  {
    "name": "Kapsalon Oonk",
    "street_address": "Kerkstraat 37",
    "postal_code": "7641BS",
    "locality": "Wierden",
    "region": "Overijssel",
    "latitude": "52.3607877",
    "longitude": "6.5895274"
  },
  {
    "name": "Ad Peters Haircompany",
    "street_address": "Boxbergerweg 56-60",
    "postal_code": "7412BE",
    "locality": "Deventer",
    "region": "Overijssel",
    "latitude": "52.2593768",
    "longitude": "6.1503223"
  },
  {
    "name": "Kapsalon Bodrum Rijssen",
    "street_address": "Enterstraat 23",
    "postal_code": "7461CE",
    "locality": "Rijssen",
    "region": "Overijssel",
    "latitude": "52.3082089",
    "longitude": "6.524992999999999"
  },
  {
    "name": "Kapsalon Smelt",
    "street_address": "Ootmarsumsestraat 328",
    "postal_code": "7603AT",
    "locality": "Almelo",
    "region": "Overijssel",
    "latitude": "52.36801490000001",
    "longitude": "6.6823218"
  },
  {
    "name": "Kapsalon De Kapperije",
    "street_address": "Dorpsstraat 10 D",
    "postal_code": "7948BR",
    "locality": "Nijeveen",
    "region": "Drenthe",
    "latitude": "52.7326606",
    "longitude": "6.167637699999999"
  },
  {
    "name": "Kapsalon Steven",
    "street_address": "Prinsenstraat 6",
    "postal_code": "7721AJ",
    "locality": "Dalfsen",
    "region": "Overijssel",
    "latitude": "52.50351020000001",
    "longitude": "6.259776899999999"
  },
  {
    "name": "Haarboetiek Bianca",
    "street_address": "Hoogeveenseweg 1",
    "postal_code": "7777TA",
    "locality": "Schuinesloot",
    "region": "Overijssel",
    "latitude": "52.6384753",
    "longitude": "6.5398754"
  },
  {
    "name": "Kapsalon Kitty",
    "street_address": "Zuiderstraat 27 A",
    "postal_code": "8356DZ",
    "locality": "Blokzijl",
    "region": "Overijssel",
    "latitude": "52.7251196",
    "longitude": "5.9608021"
  },
  {
    "name": "Qnip Hairstyling",
    "street_address": "Johannes van Vlotenlaan 113",
    "postal_code": "7412SE",
    "locality": "Deventer",
    "region": "Overijssel",
    "latitude": "52.2641914",
    "longitude": "6.137825500000001"
  },
  {
    "name": "Million Hairs",
    "street_address": "Bisschopstraat 61",
    "postal_code": "8325BB",
    "locality": "Vollenhove",
    "region": "Overijssel",
    "latitude": "52.681226",
    "longitude": "5.9534413"
  },
  {
    "name": "Chantal's Hairdesign",
    "street_address": "Westeinde 426",
    "postal_code": "7671CP",
    "locality": "Vriezenveen",
    "region": "Overijssel",
    "latitude": "52.4070864",
    "longitude": "6.6106398"
  },
  {
    "name": "Kapsalon Ankie",
    "street_address": "Ariënsplein 1",
    "postal_code": "7511JX",
    "locality": "Enschede",
    "region": "Overijssel",
    "latitude": "52.2185667",
    "longitude": "6.887477199999999"
  },
  {
    "name": "Ilona`s Knipexpress",
    "street_address": "De Kerkdijk 16",
    "postal_code": "7798CG",
    "locality": "Collendoorn",
    "region": "Overijssel",
    "latitude": "52.6089206",
    "longitude": "6.599723699999999"
  },
  {
    "name": "Hair & Beauty by Karlijn",
    "street_address": "Madridstraat 12",
    "postal_code": "7559CT",
    "locality": "Hengelo",
    "region": "Overijssel",
    "latitude": "52.2904124",
    "longitude": "6.8119564"
  },
  {
    "name": "Kapsalon M. Blok",
    "street_address": "Burgemeester Baron van Dedemstraat 6",
    "postal_code": "7711HV",
    "locality": "Nieuwleusen",
    "region": "Overijssel",
    "latitude": "52.59124689999999",
    "longitude": "6.2808163"
  },
  {
    "name": "Assink Coiffures Enschede",
    "street_address": "Brinkstraat 78",
    "postal_code": "7512EE",
    "locality": "Enschede",
    "region": "Overijssel",
    "latitude": "52.2152282",
    "longitude": "6.9001489"
  },
  {
    "name": "Kapsalon-Trudy Knip-uit",
    "street_address": "Vilsterseweg 1 a- 30",
    "postal_code": "7734PD",
    "locality": "Vilsteren",
    "region": "Overijssel",
    "latitude": "52.5075314",
    "longitude": "6.3818037"
  },
  {
    "name": "Kapsalon Très Monja",
    "street_address": "Schierstins 247",
    "postal_code": "7608XD",
    "locality": "Almelo",
    "region": "Overijssel",
    "latitude": "52.3814716",
    "longitude": "6.676487"
  },
  {
    "name": "Kapsalon Anique",
    "street_address": "Achterhoekse Molenweg 150",
    "postal_code": "7556GR",
    "locality": "Hengelo",
    "region": "Overijssel",
    "latitude": "52.275416",
    "longitude": "6.787725"
  },
  {
    "name": "Herenkapsalon John Speckmann",
    "street_address": "Deldensestraat 18",
    "postal_code": "7621EJ",
    "locality": "Borne",
    "region": "Overijssel",
    "latitude": "52.2965341",
    "longitude": "6.748982"
  },
  {
    "name": "Lieneke Hairstylist",
    "street_address": "Hagelstege 6",
    "postal_code": "7683CH",
    "locality": "Den Ham",
    "region": "Overijssel",
    "latitude": "52.46133390000001",
    "longitude": "6.4927362"
  },
  {
    "name": "Haarsalon Jevon",
    "street_address": "Ommerweg 59",
    "postal_code": "7921TB",
    "locality": "Zuidwolde",
    "region": "Drenthe",
    "latitude": "52.6406706",
    "longitude": "6.427600399999999"
  },
  {
    "name": "Salon Albert",
    "street_address": "Markt 13",
    "postal_code": "7481HS",
    "locality": "Haaksbergen",
    "region": "Overijssel",
    "latitude": "52.154398",
    "longitude": "6.7418719"
  },
  {
    "name": "Kapsalon Dekker",
    "street_address": "Kanaalweg West 67",
    "postal_code": "7691BW",
    "locality": "Bergentheim",
    "region": "Overijssel",
    "latitude": "52.5294857",
    "longitude": "6.6222262"
  },
  {
    "name": "Trendline Haarmode",
    "street_address": "Dorpsstraat 72 C",
    "postal_code": "7957AW",
    "locality": "De Wijk",
    "region": "Drenthe",
    "latitude": "52.6721264",
    "longitude": "6.2866744"
  },
  {
    "name": "Hier Knippen",
    "street_address": "Hobbemastraat 19",
    "postal_code": "8271AH",
    "locality": "IJsselmuiden",
    "region": "Overijssel",
    "latitude": "52.5620602",
    "longitude": "5.9249013"
  },
  {
    "name": "@Robin Hairdesign",
    "street_address": "Oldenzaalsestraat 124",
    "postal_code": "7557GA",
    "locality": "Hengelo",
    "region": "Overijssel",
    "latitude": "52.2689932",
    "longitude": "6.800943699999999"
  },
  {
    "name": "Happy Hair Day",
    "street_address": "Minkmaatstraat 82",
    "postal_code": "7514ED",
    "locality": "Enschede",
    "region": "Overijssel",
    "latitude": "52.2271",
    "longitude": "6.9027544"
  },
  {
    "name": "Rupert Haarmode",
    "street_address": "Goorsestraat 18",
    "postal_code": "7496AD",
    "locality": "Hengevelde",
    "region": "Overijssel",
    "latitude": "52.2001502",
    "longitude": "6.6398874"
  },
  {
    "name": "Kapsalon The Chair",
    "street_address": "Krabbenbosweg 25 A",
    "postal_code": "7555EC",
    "locality": "Hengelo",
    "region": "Overijssel",
    "latitude": "52.2610939",
    "longitude": "6.779583"
  },
  {
    "name": "Dick W.J. Heuckeroth",
    "street_address": "Nieuwstraat 9",
    "postal_code": "8061GP",
    "locality": "Hasselt",
    "region": "Overijssel",
    "latitude": "52.59082679999999",
    "longitude": "6.0906723"
  },
  {
    "name": "Kapsalon Medisch Pedicure Stell..",
    "street_address": "van Heutszpark 20",
    "postal_code": "7741CV",
    "locality": "Coevorden",
    "region": "Drenthe",
    "latitude": "52.6645782",
    "longitude": "6.742854599999999"
  },
  {
    "name": "MnM Hairdesign",
    "street_address": "Kerkstraat 25",
    "postal_code": "7532AP",
    "locality": "Enschede",
    "region": "Overijssel",
    "latitude": "52.2165338",
    "longitude": "6.9735212"
  },
  {
    "name": "Kapsalon Bernd-Guido",
    "street_address": "Korte Kerkweg 5",
    "postal_code": "7954GC",
    "locality": "Rouveen",
    "region": "Overijssel",
    "latitude": "52.6144822",
    "longitude": "6.1858438"
  },
  {
    "name": "Kapsalon Het Fleer",
    "street_address": "Braamhaarsstraat 5",
    "postal_code": "7625SB",
    "locality": "Zenderen",
    "region": "Overijssel",
    "latitude": "52.3152795",
    "longitude": "6.7090466"
  },
  {
    "name": "Kapsalon Olsman",
    "street_address": "Kloosterdijk 7 A",
    "postal_code": "7692PH",
    "locality": "Marienberg",
    "region": "Overijssel",
    "latitude": "52.4943149",
    "longitude": "6.6054808"
  },
  {
    "name": "Kapsalon Danielle",
    "street_address": "Godfried Bomansstraat 36",
    "postal_code": "7552NS",
    "locality": "Hengelo",
    "region": "Overijssel",
    "latitude": "52.2589001",
    "longitude": "6.8277889"
  },
  {
    "name": "Kapsalon Bosch",
    "street_address": "Smidsweg 93",
    "postal_code": "7441EL",
    "locality": "Nijverdal",
    "region": "Overijssel",
    "latitude": "52.3612535",
    "longitude": "6.4597245"
  },
  {
    "name": "Kapsalon Bodrum",
    "street_address": "Enterstraat 13",
    "postal_code": "7461CE",
    "locality": "Rijssen",
    "region": "Overijssel",
    "latitude": "52.3085945",
    "longitude": "6.5247861"
  },
  {
    "name": "Kapsalon Magnifique",
    "street_address": "Stationsstraat 46",
    "postal_code": "8102ED",
    "locality": "Raalte",
    "region": "Overijssel",
    "latitude": "52.3875228",
    "longitude": "6.2759035"
  },
  {
    "name": "Dion Hairconcept",
    "street_address": "Molenstraat 53",
    "postal_code": "7481GK",
    "locality": "Haaksbergen",
    "region": "Overijssel",
    "latitude": "52.1526536",
    "longitude": "6.741505099999999"
  },
  {
    "name": "Kapsalon De Merelhof",
    "street_address": "Espoortstraat 257-3 E RES MHOF",
    "postal_code": "7511CL",
    "locality": "Enschede",
    "region": "Overijssel",
    "latitude": "52.2189266",
    "longitude": "6.9066062"
  },
  {
    "name": "Gerda's Hairfashion",
    "street_address": "Herenstraat 22",
    "postal_code": "7776AJ",
    "locality": "Slagharen",
    "region": "Overijssel",
    "latitude": "52.62607500000001",
    "longitude": "6.556137300000001"
  },
  {
    "name": "Kapsalon Judith",
    "street_address": "Lambertus Struikstraat 11",
    "postal_code": "7925PR",
    "locality": "Linde",
    "region": "Drenthe",
    "latitude": "52.6395594",
    "longitude": "6.4455544"
  },
  {
    "name": "Kapsalon Ellen Klein Koerkamp",
    "street_address": "Brink 66",
    "postal_code": "7411BW",
    "locality": "Deventer",
    "region": "Overijssel",
    "latitude": "52.2512003",
    "longitude": "6.1592511"
  },
  {
    "name": "Haarmode Marije",
    "street_address": "Oude Dijk 30",
    "postal_code": "8351HS",
    "locality": "Wapserveen",
    "region": "Drenthe",
    "latitude": "52.82452010000001",
    "longitude": "6.2165"
  },
  {
    "name": "Kapsalon Ineke",
    "street_address": "Raalterweg 35",
    "postal_code": "8124AA",
    "locality": "Wesepe",
    "region": "Overijssel",
    "latitude": "52.3274418",
    "longitude": "6.206625499999999"
  },
  {
    "name": "Coiffures Schuurman",
    "street_address": "Deventerstraat 89",
    "postal_code": "8102GB",
    "locality": "Raalte",
    "region": "Overijssel",
    "latitude": "52.3801034",
    "longitude": "6.272649299999999"
  },
  {
    "name": "Tape extensions kampen",
    "street_address": "Teding van Berkhoutstraat 37",
    "postal_code": "8265ZH",
    "locality": "Kampen",
    "region": "Overijssel",
    "latitude": "52.5464162",
    "longitude": "5.910519600000001"
  },
  {
    "name": "Kapsalon Lentferink",
    "street_address": "Almeloseweg 199",
    "postal_code": "7614LA",
    "locality": "Mariaparochie",
    "region": "Overijssel",
    "latitude": "52.3796149",
    "longitude": "6.707116600000001"
  },
  {
    "name": "Kapsalon Maureen",
    "street_address": "Ereprijs 37",
    "postal_code": "7577BH",
    "locality": "Oldenzaal",
    "region": "Overijssel",
    "latitude": "52.3244601",
    "longitude": "6.9216425"
  },
  {
    "name": "Kapsalon gwoon Sanne",
    "street_address": "Kooiweg 1",
    "postal_code": "7683RR",
    "locality": "Den Ham",
    "region": "Overijssel",
    "latitude": "52.4651507",
    "longitude": "6.5277121"
  },
  {
    "name": "Hair Level",
    "street_address": "Albardastraat 21",
    "postal_code": "7611BD",
    "locality": "Aadorp",
    "region": "Overijssel",
    "latitude": "52.3783994",
    "longitude": "6.6266652"
  },
  {
    "name": "Salon Riet van den Burg",
    "street_address": "De Smederij 3",
    "postal_code": "7471BS",
    "locality": "Goor",
    "region": "Overijssel",
    "latitude": "52.2327601",
    "longitude": "6.584459"
  },
  {
    "name": "'t Knip Usien",
    "street_address": "Buzenland 1",
    "postal_code": "8281XD",
    "locality": "Genemuiden",
    "region": "Overijssel",
    "latitude": "52.6192196",
    "longitude": "6.042452400000001"
  },
  {
    "name": "E. Zwart",
    "street_address": "Rustenbergherstraat 11",
    "postal_code": "7771CM",
    "locality": "Hardenberg",
    "region": "Overijssel",
    "latitude": "52.5737252",
    "longitude": "6.6041627"
  },
  {
    "name": "Carin's Haarmode",
    "street_address": "Burgwal 91",
    "postal_code": "8261ET",
    "locality": "Kampen",
    "region": "Overijssel",
    "latitude": "52.559721",
    "longitude": "5.9138039"
  },
  {
    "name": "Kapsalon Broer",
    "street_address": "Dominee T.O. Hylkemaweg 30",
    "postal_code": "8355CE",
    "locality": "Giethoorn",
    "region": "Overijssel",
    "latitude": "52.7224306",
    "longitude": "6.0845061"
  },
  {
    "name": "Kapsalon Berta",
    "street_address": "Burgemeester Haitsmalaan 20",
    "postal_code": "7948AE",
    "locality": "Nijeveen",
    "region": "Drenthe",
    "latitude": "52.7299704",
    "longitude": "6.1658504"
  },
  {
    "name": "Hairdress 038",
    "street_address": "Telemannstraat 56",
    "postal_code": "8031KL",
    "locality": "Zwolle",
    "region": "Overijssel",
    "latitude": "52.5281641",
    "longitude": "6.0849132"
  },
  {
    "name": "Kapsalon Schelle",
    "street_address": "Schellerallee 1",
    "postal_code": "8017AN",
    "locality": "Zwolle",
    "region": "Overijssel",
    "latitude": "52.4989449",
    "longitude": "6.0956145"
  },
  {
    "name": "Haarboetiek De Kapperie",
    "street_address": "Molenstraat 10",
    "postal_code": "7491BG",
    "locality": "Delden",
    "region": "Overijssel",
    "latitude": "52.2625922",
    "longitude": "6.709699"
  },
  {
    "name": "Hairweave Studio Christine",
    "street_address": "Struweelstraat 24",
    "postal_code": "8043VN",
    "locality": "Zwolle",
    "region": "Overijssel",
    "latitude": "52.5289461",
    "longitude": "6.0542463"
  },
  {
    "name": "Madré Haarmode",
    "street_address": "Marktstraat 3",
    "postal_code": "7511GC",
    "locality": "Enschede",
    "region": "Overijssel",
    "latitude": "52.22084109999999",
    "longitude": "6.894520699999999"
  },
  {
    "name": "Modekappers Noord Nederland",
    "street_address": "Hoofdstraat 32",
    "postal_code": "7941AH",
    "locality": "Meppel",
    "region": "Drenthe",
    "latitude": "52.6979591",
    "longitude": "6.1900045"
  },
  {
    "name": "Marimorphose beauty & hair",
    "street_address": "Grotestraat 104 a",
    "postal_code": "7622GN",
    "locality": "Borne",
    "region": "Overijssel",
    "latitude": "52.2980265",
    "longitude": "6.760496799999999"
  },
  {
    "name": "Hairfashion voor Haar en Hem",
    "street_address": "Stationsstraat 29",
    "postal_code": "7475AL",
    "locality": "Markelo",
    "region": "Overijssel",
    "latitude": "52.2326608",
    "longitude": "6.4960795"
  },
  {
    "name": "Haarmode Solo",
    "street_address": "Deurningerstraat 304",
    "postal_code": "7522CN",
    "locality": "Enschede",
    "region": "Overijssel",
    "latitude": "52.2347855",
    "longitude": "6.8858716"
  },
  {
    "name": "Salon Trendline",
    "street_address": "Hoofdweg 177",
    "postal_code": "7676AD",
    "locality": "Westerhaar-Vriezenveensewijk",
    "region": "Overijssel",
    "latitude": "52.4634094",
    "longitude": "6.6182609"
  },
  {
    "name": "Haarmode Bianca",
    "street_address": "Kornet van Limburg Stirumstraat 48",
    "postal_code": "8121DZ",
    "locality": "Olst",
    "region": "Overijssel",
    "latitude": "52.341224",
    "longitude": "6.1124944"
  },
  {
    "name": "Edwin Kapsalon",
    "street_address": "Scholestraat 25",
    "postal_code": "8331HS",
    "locality": "Steenwijk",
    "region": "Overijssel",
    "latitude": "52.786932",
    "longitude": "6.1187977"
  },
  {
    "name": "Hairstyling Salon Bertine",
    "street_address": "Kerkstraat 33",
    "postal_code": "7532AP",
    "locality": "Enschede",
    "region": "Overijssel",
    "latitude": "52.2167962",
    "longitude": "6.9733988"
  },
  {
    "name": "Sandra's Hairfashion",
    "street_address": "Johannes Bogermanstraat 1",
    "postal_code": "8331GZ",
    "locality": "Steenwijk",
    "region": "Overijssel",
    "latitude": "52.7890673",
    "longitude": "6.1145347"
  },
  {
    "name": "Hairstudio Soraya",
    "street_address": "Hammerstraat 2 C",
    "postal_code": "7681DC",
    "locality": "Vroomshoop",
    "region": "Overijssel",
    "latitude": "52.4614105",
    "longitude": "6.5718675"
  },
  {
    "name": "Alice Hairstyling",
    "street_address": "Schipholtstraat 79",
    "postal_code": "7534CS",
    "locality": "Enschede",
    "region": "Overijssel",
    "latitude": "52.211715",
    "longitude": "6.9697067"
  },
  {
    "name": "Patricia Hair & Make-up",
    "street_address": "Troelstraplein 2",
    "postal_code": "7942BD",
    "locality": "Meppel",
    "region": "Drenthe",
    "latitude": "52.7040817",
    "longitude": "6.1958329"
  },
  {
    "name": "Hairstyling Regina",
    "street_address": "De Opera 29",
    "postal_code": "8265TB",
    "locality": "Kampen",
    "region": "Overijssel",
    "latitude": "52.53767269999999",
    "longitude": "5.908205"
  },
  {
    "name": "Nellies Knipboutique",
    "street_address": "Gasthuisstraat 22",
    "postal_code": "8331JP",
    "locality": "Steenwijk",
    "region": "Overijssel",
    "latitude": "52.78613490000001",
    "longitude": "6.1153262"
  },
  {
    "name": "Salon Mariëtte Hair&Body",
    "street_address": "Schietbaan 17",
    "postal_code": "7491HC",
    "locality": "Delden",
    "region": "Overijssel",
    "latitude": "52.2586407",
    "longitude": "6.697812600000001"
  },
  {
    "name": "Lookx Hair Beauty en Visagie",
    "street_address": "Korenstraat 27",
    "postal_code": "8102BA",
    "locality": "Raalte",
    "region": "Overijssel",
    "latitude": "52.3896501",
    "longitude": "6.2772472"
  },
  {
    "name": "Haarstyliste Theadelinde",
    "street_address": "Gravendijk 33",
    "postal_code": "7734PM",
    "locality": "Vilsteren",
    "region": "Overijssel",
    "latitude": "52.5097464",
    "longitude": "6.346426000000001"
  },
  {
    "name": "Kapsalon Elly",
    "street_address": "Moersberger Erven 8",
    "postal_code": "8383EA",
    "locality": "Nijensleek",
    "region": "Drenthe",
    "latitude": "52.8391364",
    "longitude": "6.176275500000001"
  },
  {
    "name": "Carole hairfashion",
    "street_address": "Kanaalweg 17 A",
    "postal_code": "7591NH",
    "locality": "Denekamp",
    "region": "Overijssel",
    "latitude": "52.3943808",
    "longitude": "7.0313857"
  },
  {
    "name": "Claudia's Hairdesign",
    "street_address": "Haaksbergerstraat 359",
    "postal_code": "7545GK",
    "locality": "Enschede",
    "region": "Overijssel",
    "latitude": "52.2082439",
    "longitude": "6.872804599999999"
  },
  {
    "name": "Haarmode Contour",
    "street_address": "Hoogstraat 13",
    "postal_code": "8061HA",
    "locality": "Hasselt",
    "region": "Overijssel",
    "latitude": "52.5912757",
    "longitude": "6.0892332"
  },
  {
    "name": "Sher kapper twello",
    "street_address": "van Ghentstraat 17",
    "postal_code": "7391CR",
    "locality": "Twello",
    "region": "Gelderland",
    "latitude": "52.2362921",
    "longitude": "6.1040563"
  },
  {
    "name": "Haarstudio Van Dongen",
    "street_address": "Oudestraat 182",
    "postal_code": "8261CW",
    "locality": "Kampen",
    "region": "Overijssel",
    "latitude": "52.5599989",
    "longitude": "5.915295"
  },
  {
    "name": "Hans Kalf Intercoiffure",
    "street_address": "Brederostraat 2",
    "postal_code": "8023AT",
    "locality": "Zwolle",
    "region": "Overijssel",
    "latitude": "52.5139986",
    "longitude": "6.1120608"
  },
  {
    "name": "Knip & Kleurservice Cisca Bruin..",
    "street_address": "De Maalderij 32",
    "postal_code": "7701CC",
    "locality": "Dedemsvaart",
    "region": "Overijssel",
    "latitude": "52.60079349999999",
    "longitude": "6.4597677"
  },
  {
    "name": "Haarvormgeving Jacqueline Kroon",
    "street_address": "Spinhuisbredehoek 8",
    "postal_code": "8011XC",
    "locality": "Zwolle",
    "region": "Overijssel",
    "latitude": "52.5148838",
    "longitude": "6.0979621"
  },
  {
    "name": "Thuis Kapper Zwolle",
    "street_address": "Moerbeistraat 12",
    "postal_code": "8021ZC",
    "locality": "Zwolle",
    "region": "Overijssel",
    "latitude": "52.5187019",
    "longitude": "6.101235399999999"
  },
  {
    "name": "4 Your Hair",
    "street_address": "Moddeweg 10",
    "postal_code": "7462PX",
    "locality": "Rijssen",
    "region": "Overijssel",
    "latitude": "52.3097113",
    "longitude": "6.5075619"
  },
  {
    "name": "Liz Coiffures",
    "street_address": "Constantijn Huygensstraat 11",
    "postal_code": "7412MD",
    "locality": "Deventer",
    "region": "Overijssel",
    "latitude": "52.2669795",
    "longitude": "6.141769399999999"
  },
  {
    "name": "Looxz Hairextensions",
    "street_address": "Garvesingel 284",
    "postal_code": "7672BR",
    "locality": "Vriezenveen",
    "region": "Overijssel",
    "latitude": "52.4143959",
    "longitude": "6.618538699999999"
  },
  {
    "name": "Renate's Hairdesign",
    "street_address": "Raaigras 11",
    "postal_code": "7623ET",
    "locality": "Borne",
    "region": "Overijssel",
    "latitude": "52.3057494",
    "longitude": "6.760340299999999"
  },
  {
    "name": "Caro's Knipmobiel",
    "street_address": "Zwartehofslaan 37",
    "postal_code": "8375AE",
    "locality": "Oldemarkt",
    "region": "Overijssel",
    "latitude": "52.8195825",
    "longitude": "5.9789217"
  },
  {
    "name": "Hairstyling Angelique Woldberg",
    "street_address": "Johan van Twickelostraat 34",
    "postal_code": "8101EX",
    "locality": "Raalte",
    "region": "Overijssel",
    "latitude": "52.3838565",
    "longitude": "6.264258799999999"
  },
  {
    "name": "Kapsalon Hairpoint",
    "street_address": "Het Bussink 12",
    "postal_code": "7214BD",
    "locality": "Epse",
    "region": "Gelderland",
    "latitude": "52.2266165",
    "longitude": "6.2009197"
  },
  {
    "name": "Go-Go's Haarmode",
    "street_address": "Lou Bandystraat 6",
    "postal_code": "7558ZE",
    "locality": "Hengelo",
    "region": "Overijssel",
    "latitude": "52.29152509999999",
    "longitude": "6.8309447"
  },
  {
    "name": "Salon Marisch",
    "street_address": "Grotestraat 51",
    "postal_code": "7478AB",
    "locality": "Diepenheim",
    "region": "Overijssel",
    "latitude": "52.1997724",
    "longitude": "6.553456300000001"
  },
  {
    "name": "Kapsalon Bodrum",
    "street_address": "Rijssenseweg 5",
    "postal_code": "7468AA",
    "locality": "Enter",
    "region": "Overijssel",
    "latitude": "52.2951507",
    "longitude": "6.5755978"
  },
  {
    "name": "Roelien's Haarmode",
    "street_address": "Brinkweg 3",
    "postal_code": "8267AV",
    "locality": "Kampen",
    "region": "Overijssel",
    "latitude": "52.5965386",
    "longitude": "5.9363975"
  },
  {
    "name": "Lou hairfashion",
    "street_address": "Gasthuisplein 27",
    "postal_code": "8011SB",
    "locality": "Zwolle",
    "region": "Overijssel",
    "latitude": "52.5120581",
    "longitude": "6.097076899999999"
  },
  {
    "name": "Le Figaro Haaradviseurs",
    "street_address": "Piet Heinstraat 1",
    "postal_code": "7511JE",
    "locality": "Enschede",
    "region": "Overijssel",
    "latitude": "52.2209599",
    "longitude": "6.8905518"
  },
  {
    "name": "Sandra's Hairstudio",
    "street_address": "Nordhornsestraat 5",
    "postal_code": "7591BC",
    "locality": "Denekamp",
    "region": "Overijssel",
    "latitude": "52.3765088",
    "longitude": "7.006950499999999"
  },
  {
    "name": "Kapsalon Jolande",
    "street_address": "De Holtinck 59",
    "postal_code": "7641BM",
    "locality": "Wierden",
    "region": "Overijssel",
    "latitude": "52.360063",
    "longitude": "6.5865421"
  },
  {
    "name": "Dames- en Herensalon Coupe SES",
    "street_address": "Pastoor Ossestraat 7 A",
    "postal_code": "7627PH",
    "locality": "Bornerbroek",
    "region": "Overijssel",
    "latitude": "52.3092767",
    "longitude": "6.6555611"
  },
  {
    "name": "Absolutely-Margret Dames- en He..",
    "street_address": "Anninksweg 4",
    "postal_code": "7557AG",
    "locality": "Hengelo",
    "region": "Overijssel",
    "latitude": "52.26455550000001",
    "longitude": "6.8055787"
  },
  {
    "name": "De Kapperij",
    "street_address": "Westerweg 6",
    "postal_code": "7685PK",
    "locality": "Beerzerveld",
    "region": "Overijssel",
    "latitude": "52.50207",
    "longitude": "6.5848659"
  },
  {
    "name": "Gertrude's Hairstyling",
    "street_address": "Kloosterweg 39",
    "postal_code": "8326CB",
    "locality": "Sint Jansklooster",
    "region": "Overijssel",
    "latitude": "52.67876889999999",
    "longitude": "6.007477799999999"
  },
  {
    "name": "Kapsalon Linda",
    "street_address": "Broekland 16",
    "postal_code": "7672BN",
    "locality": "Vriezenveen",
    "region": "Overijssel",
    "latitude": "52.4137099",
    "longitude": "6.6167335"
  },
  {
    "name": "Haarboetiek 't Heukske",
    "street_address": "Burgemeester Buyvoetsplein 2",
    "postal_code": "7497LD",
    "locality": "Bentelo",
    "region": "Overijssel",
    "latitude": "52.22493600000001",
    "longitude": "6.6813103"
  },
  {
    "name": "Budget Hair",
    "street_address": "Kastanjestraat 19 a",
    "postal_code": "7572TH",
    "locality": "Oldenzaal",
    "region": "Overijssel",
    "latitude": "52.308902",
    "longitude": "6.924258099999999"
  },
  {
    "name": "Landstede Hairstyling",
    "street_address": "Assendorperstraat 57-59",
    "postal_code": "8012DG",
    "locality": "Zwolle",
    "region": "Overijssel",
    "latitude": "52.5065575",
    "longitude": "6.101584099999999"
  },
  {
    "name": "Haarmode Lianne",
    "street_address": "Sleedoorn 26",
    "postal_code": "8355ED",
    "locality": "Giethoorn",
    "region": "Overijssel",
    "latitude": "52.7376044",
    "longitude": "6.0804713"
  },
  {
    "name": "Hair@all",
    "street_address": "Holterweg 61",
    "postal_code": "7429AE",
    "locality": "Deventer",
    "region": "Overijssel",
    "latitude": "52.2486707",
    "longitude": "6.217170299999999"
  },
  {
    "name": "Fatma's Hairdesign",
    "street_address": "Assendorperstraat 52",
    "postal_code": "8012CA",
    "locality": "Zwolle",
    "region": "Overijssel",
    "latitude": "52.5077477",
    "longitude": "6.0994528"
  },
  {
    "name": "Ellen's Knipcar",
    "street_address": "Deppenbroekweg 4",
    "postal_code": "7582RD",
    "locality": "Losser",
    "region": "Overijssel",
    "latitude": "52.25065619999999",
    "longitude": "6.9994901"
  },
  {
    "name": "Buurt Kapsalon Minka",
    "street_address": "Corellistraat 53",
    "postal_code": "8031JH",
    "locality": "Zwolle",
    "region": "Overijssel",
    "latitude": "52.5288052",
    "longitude": "6.078247699999999"
  },
  {
    "name": "Hair By Christine",
    "street_address": "Thomas à Kempisstraat 87",
    "postal_code": "8021BL",
    "locality": "Zwolle",
    "region": "Overijssel",
    "latitude": "52.5162874",
    "longitude": "6.1051741"
  },
  {
    "name": "Passion for Hair",
    "street_address": "Piet Heinstraat 32",
    "postal_code": "7622XM",
    "locality": "Borne",
    "region": "Overijssel",
    "latitude": "52.2910548",
    "longitude": "6.7595299"
  },
  {
    "name": "Kuypers Haarmode",
    "street_address": "Grotestraat 42",
    "postal_code": "7607CP",
    "locality": "Almelo",
    "region": "Overijssel",
    "latitude": "52.35750880000001",
    "longitude": "6.664680100000001"
  },
  {
    "name": "Studio 11 Hairstyling",
    "street_address": "Karthuizerlaan 11",
    "postal_code": "8271XA",
    "locality": "IJsselmuiden",
    "region": "Overijssel",
    "latitude": "52.5619178",
    "longitude": "5.9539433"
  },
  {
    "name": "Kapsalon Linda",
    "street_address": "Fazant 34",
    "postal_code": "8103EL",
    "locality": "Raalte",
    "region": "Overijssel",
    "latitude": "52.3925761",
    "longitude": "6.285906199999999"
  },
  {
    "name": "Kapsalon Weltevreden",
    "street_address": "Walhofstraat 64 A",
    "postal_code": "7522BM",
    "locality": "Enschede",
    "region": "Overijssel",
    "latitude": "52.22935469999999",
    "longitude": "6.886684199999999"
  },
  {
    "name": "Egbert Kwant",
    "street_address": "Oudestraat 8",
    "postal_code": "7783AW",
    "locality": "Gramsbergen",
    "region": "Overijssel",
    "latitude": "52.6103412",
    "longitude": "6.6731741"
  },
  {
    "name": "Kapsalon Riki",
    "street_address": "Landmansweg 84",
    "postal_code": "7556LX",
    "locality": "Hengelo",
    "region": "Overijssel",
    "latitude": "52.2788257",
    "longitude": "6.805228899999999"
  },
  {
    "name": "Emcee Kappers",
    "street_address": "Hibbertsstraat 2",
    "postal_code": "7481JD",
    "locality": "Haaksbergen",
    "region": "Overijssel",
    "latitude": "52.1553433",
    "longitude": "6.740931000000001"
  },
  {
    "name": "Dity",
    "street_address": "Brinkgreverweg 20",
    "postal_code": "7413AC",
    "locality": "Deventer",
    "region": "Overijssel",
    "latitude": "52.25661789999999",
    "longitude": "6.1650719"
  },
  {
    "name": "Hairwave",
    "street_address": "Buizerdweg 39",
    "postal_code": "7701KC",
    "locality": "Dedemsvaart",
    "region": "Overijssel",
    "latitude": "52.5955985",
    "longitude": "6.4567925"
  },
  {
    "name": "Will's Herensalon",
    "street_address": "Looweg 18",
    "postal_code": "7437RR",
    "locality": "Bathmen",
    "region": "Overijssel",
    "latitude": "52.2510677",
    "longitude": "6.2907147"
  },
  {
    "name": "kapsalon Coulante",
    "street_address": "Het Koeland 49",
    "postal_code": "7433HJ",
    "locality": "Schalkhaar",
    "region": "Overijssel",
    "latitude": "52.2710411",
    "longitude": "6.1926453"
  },
  {
    "name": "Kapsalon Tres Tess",
    "street_address": "Hulststraat 9",
    "postal_code": "7601SP",
    "locality": "Almelo",
    "region": "Overijssel",
    "latitude": "52.3455392",
    "longitude": "6.6719937"
  },
  {
    "name": "Seth's Hairline",
    "street_address": "Bornsestraat 2-4",
    "postal_code": "7607KN",
    "locality": "Almelo",
    "region": "Overijssel",
    "latitude": "52.3516965",
    "longitude": "6.6653463"
  },
  {
    "name": "MB Hair Fashion",
    "street_address": "Molenweg 3 a",
    "postal_code": "7396AA",
    "locality": "Terwolde",
    "region": "Gelderland",
    "latitude": "52.2838492",
    "longitude": "6.0984414"
  },
  {
    "name": "Studio Haarstijl",
    "street_address": "Raadhuisplein 7",
    "postal_code": "7651CV",
    "locality": "Tubbergen",
    "region": "Overijssel",
    "latitude": "52.4077906",
    "longitude": "6.7813455"
  },
  {
    "name": "HairPerfectionByAnne-Mar",
    "street_address": "Dieselstraat 2",
    "postal_code": "8263AE",
    "locality": "Kampen",
    "region": "Overijssel",
    "latitude": "52.5650894",
    "longitude": "5.8872805"
  },
  {
    "name": "Pamela's Hairfashion",
    "street_address": "Vijverhof 9",
    "postal_code": "8121GZ",
    "locality": "Olst",
    "region": "Overijssel",
    "latitude": "52.33437989999999",
    "longitude": "6.1043569"
  },
  {
    "name": "Kapsalon het Zonnetje",
    "street_address": "Kanaalstraat 3",
    "postal_code": "8167LL",
    "locality": "Oene",
    "region": "Gelderland",
    "latitude": "52.3452508",
    "longitude": "6.0267667"
  },
  {
    "name": "de Spiegel",
    "street_address": "Godebaldstraat 33",
    "postal_code": "7415ZM",
    "locality": "Deventer",
    "region": "Overijssel",
    "latitude": "52.271925",
    "longitude": "6.166379999999999"
  },
  {
    "name": "Nicole's Haarmode",
    "street_address": "Dorpstraat 1 B",
    "postal_code": "7587AA",
    "locality": "De Lutte",
    "region": "Overijssel",
    "latitude": "52.3151555",
    "longitude": "6.987486499999999"
  },
  {
    "name": "Haarmode Charlotte",
    "street_address": "Weerdhuisweg 3 A",
    "postal_code": "8152AW",
    "locality": "Lemelerveld",
    "region": "Overijssel",
    "latitude": "52.4452588",
    "longitude": "6.3329073"
  },
  {
    "name": "Ingrids kapsalon",
    "street_address": "Reimersdennenweg 11",
    "postal_code": "7559PL",
    "locality": "Hengelo",
    "region": "Overijssel",
    "latitude": "52.2993993",
    "longitude": "6.8117054"
  },
  {
    "name": "Trend 4 Hair",
    "street_address": "Groot Wezenland 20",
    "postal_code": "8011JW",
    "locality": "Zwolle",
    "region": "Overijssel",
    "latitude": "52.5088673",
    "longitude": "6.0986017"
  },
  {
    "name": "Kapsalon Unique",
    "street_address": "Ringmus 8",
    "postal_code": "8271HE",
    "locality": "IJsselmuiden",
    "region": "Overijssel",
    "latitude": "52.5650589",
    "longitude": "5.9434974"
  },
  {
    "name": "Zamieda Hairfashion",
    "street_address": "Alm 1",
    "postal_code": "8032BK",
    "locality": "Zwolle",
    "region": "Overijssel",
    "latitude": "52.5268705",
    "longitude": "6.1073651"
  },